[
  {
    "id": "1",
    "loc_id": "14308",
    "postcode": "19348",
    "city": "Berge bei Perleberg",
    "lat": "53.23746",
    "lng": "11.87077"
  },
  {
    "id": "2",
    "loc_id": "22537",
    "postcode": "85309",
    "city": "Pörnbach",
    "lat": "48.6167",
    "lng": "11.4667"
  },
  {
    "id": "3",
    "loc_id": "106968",
    "postcode": "24790",
    "city": "Osterrönfeld Heidkrug",
    "lat": "54.27536",
    "lng": "9.737535"
  },
  {
    "id": "4",
    "loc_id": "18324",
    "postcode": "98646",
    "city": "Hildburghausen",
    "lat": "50.43950110601",
    "lng": "10.723922177567"
  },
  {
    "id": "5",
    "loc_id": "16590",
    "postcode": "27336",
    "city": "Frankenfeld",
    "lat": "Aller",
    "lng": "52.76951"
  },
  {
    "id": "6",
    "loc_id": "19092",
    "postcode": "19294",
    "city": "Karenz",
    "lat": "53.23012",
    "lng": "11.34384"
  },
  {
    "id": "7",
    "loc_id": "144118",
    "postcode": "19395",
    "city": "Wendisch Priborn Tönchow",
    "lat": "53.34181",
    "lng": "12.3207600000001"
  },
  {
    "id": "8",
    "loc_id": "16355",
    "postcode": "99628",
    "city": "Eßleben-Teutleben",
    "lat": "51.1417",
    "lng": "11.4583"
  },
  {
    "id": "9",
    "loc_id": "25953",
    "postcode": "38486",
    "city": "Wenze",
    "lat": "52.56471",
    "lng": "11.13311"
  },
  {
    "id": "10",
    "loc_id": "21836",
    "postcode": "72622",
    "city": "Nürtingen",
    "lat": "48.6333",
    "lng": "9.35"
  },
  {
    "id": "11",
    "loc_id": "16410",
    "postcode": "27324",
    "city": "Eystrup",
    "lat": "52.7764",
    "lng": "9.21752"
  },
  {
    "id": "12",
    "loc_id": "15101",
    "postcode": "17440",
    "city": "Buddenhagen bei Wolgast",
    "lat": "54.0000756749505",
    "lng": "13.6904298782349"
  },
  {
    "id": "13",
    "loc_id": "143280",
    "postcode": "19073",
    "city": "Dümmer Walsmühlen",
    "lat": "53.56353",
    "lng": "11.2614100000001"
  },
  {
    "id": "14",
    "loc_id": "22961",
    "postcode": "08141",
    "city": "Reinsdorf bei Zwickau",
    "lat": "50.7",
    "lng": "12.5833"
  },
  {
    "id": "15",
    "loc_id": "13766",
    "postcode": "06317",
    "city": "Aseleben",
    "lat": "51.48859",
    "lng": "11.67065"
  },
  {
    "id": "16",
    "loc_id": "15874",
    "postcode": "56307",
    "city": "Dürrholz",
    "lat": "50.5889",
    "lng": "7.57222"
  },
  {
    "id": "17",
    "loc_id": "144248",
    "postcode": "18581",
    "city": "Putbus Altkamp",
    "lat": "54.315887",
    "lng": "13.42442"
  },
  {
    "id": "18",
    "loc_id": "20962",
    "postcode": "56370",
    "city": "Mittelfischbach",
    "lat": "Rhein-Lahn-Kreis",
    "lng": "50.25"
  },
  {
    "id": "19",
    "loc_id": "81431",
    "postcode": "76185",
    "city": "Karlsruhe (Baden) Daxlanden",
    "lat": "49.0047",
    "lng": "8.38583"
  },
  {
    "id": "20",
    "loc_id": "81431",
    "postcode": "76189",
    "city": "Karlsruhe (Baden) Daxlanden",
    "lat": "49.0047",
    "lng": "8.38583"
  },
  {
    "id": "21",
    "loc_id": "26317",
    "postcode": "07318",
    "city": "Wittgendorf bei Saalfeld",
    "lat": "50.6",
    "lng": "11.2333"
  },
  {
    "id": "22",
    "loc_id": "143695",
    "postcode": "19071",
    "city": "Brüsewitz Gottmannsförde",
    "lat": "53.68279",
    "lng": "11.2731200000001"
  },
  {
    "id": "23",
    "loc_id": "20873",
    "postcode": "31867",
    "city": "Messenkamp",
    "lat": "52.260082",
    "lng": "9.379738"
  },
  {
    "id": "24",
    "loc_id": "23311",
    "postcode": "09661",
    "city": "Rossau bei Mittweida",
    "lat": "51",
    "lng": "13.0667"
  },
  {
    "id": "25",
    "loc_id": "17814",
    "postcode": "37620",
    "city": "Halle",
    "lat": "Kreis Holzminden",
    "lng": "51.99053"
  },
  {
    "id": "26",
    "loc_id": "21881",
    "postcode": "54578",
    "city": "Oberehe-Stroheich",
    "lat": "50.2833",
    "lng": "6.76667"
  },
  {
    "id": "27",
    "loc_id": "150748",
    "postcode": "17179",
    "city": "Gnoien Finkenthal",
    "lat": "53.94062",
    "lng": "12.77757"
  },
  {
    "id": "28",
    "loc_id": "15700",
    "postcode": "26892",
    "city": "Dörpen",
    "lat": "52.96848",
    "lng": "7.34218999999996"
  },
  {
    "id": "29",
    "loc_id": "19727",
    "postcode": "04509",
    "city": "Krostitz",
    "lat": "51.46221",
    "lng": "12.45321"
  },
  {
    "id": "30",
    "loc_id": "16073",
    "postcode": "87637",
    "city": "Eisenberg",
    "lat": "Allgäu",
    "lng": "47.6"
  },
  {
    "id": "31",
    "loc_id": "19071",
    "postcode": "76870",
    "city": "Kandel",
    "lat": "Pfalz",
    "lng": "49.0892"
  },
  {
    "id": "32",
    "loc_id": "21057",
    "postcode": "06618",
    "city": "Molau",
    "lat": "51.05",
    "lng": "11.7833"
  },
  {
    "id": "33",
    "loc_id": "13581",
    "postcode": "86450",
    "city": "Altenmünster",
    "lat": "Schwaben",
    "lng": "48.4667"
  },
  {
    "id": "34",
    "loc_id": "150621",
    "postcode": "06842",
    "city": "Dessau-Roßlau",
    "lat": "51.84247",
    "lng": "12.2305200000001"
  },
  {
    "id": "35",
    "loc_id": "150621",
    "postcode": "06844",
    "city": "Dessau-Roßlau",
    "lat": "51.84247",
    "lng": "12.2305200000001"
  },
  {
    "id": "36",
    "loc_id": "150621",
    "postcode": "06846",
    "city": "Dessau-Roßlau",
    "lat": "51.84247",
    "lng": "12.2305200000001"
  },
  {
    "id": "37",
    "loc_id": "150621",
    "postcode": "06847",
    "city": "Dessau-Roßlau",
    "lat": "51.84247",
    "lng": "12.2305200000001"
  },
  {
    "id": "38",
    "loc_id": "150621",
    "postcode": "06849",
    "city": "Dessau-Roßlau",
    "lat": "51.84247",
    "lng": "12.2305200000001"
  },
  {
    "id": "39",
    "loc_id": "150621",
    "postcode": "06861",
    "city": "Dessau-Roßlau",
    "lat": "51.84247",
    "lng": "12.2305200000001"
  },
  {
    "id": "40",
    "loc_id": "150621",
    "postcode": "06862",
    "city": "Dessau-Roßlau",
    "lat": "51.84247",
    "lng": "12.2305200000001"
  },
  {
    "id": "41",
    "loc_id": "23416",
    "postcode": "95365",
    "city": "Rugendorf",
    "lat": "50.2",
    "lng": "11.4667"
  },
  {
    "id": "42",
    "loc_id": "20716",
    "postcode": "54597",
    "city": "Matzerath",
    "lat": "Eifel",
    "lng": "50.15"
  },
  {
    "id": "43",
    "loc_id": "141854",
    "postcode": "66121",
    "city": "Saarbrücken Schafbrücke",
    "lat": "49.2333",
    "lng": "7"
  },
  {
    "id": "44",
    "loc_id": "15984",
    "postcode": "87653",
    "city": "Eggenthal",
    "lat": "Schwaben",
    "lng": "47.9167"
  },
  {
    "id": "45",
    "loc_id": "22227",
    "postcode": "25590",
    "city": "Osterstedt",
    "lat": "54.11061",
    "lng": "9.57374000000004"
  },
  {
    "id": "46",
    "loc_id": "15521",
    "postcode": "37691",
    "city": "Derental",
    "lat": "51.69517",
    "lng": "9.43173000000002"
  },
  {
    "id": "47",
    "loc_id": "20059",
    "postcode": "25917",
    "city": "Leck",
    "lat": "54.7718980373985",
    "lng": "8.97466555293232"
  },
  {
    "id": "48",
    "loc_id": "144337",
    "postcode": "17379",
    "city": "Ferdinandshof",
    "lat": "Vorpommern Sprengersfelde",
    "lng": "53.68983"
  },
  {
    "id": "49",
    "loc_id": "19901",
    "postcode": "38685",
    "city": "Langelsheim",
    "lat": "51.93581",
    "lng": "10.3324700000001"
  },
  {
    "id": "50",
    "loc_id": "14065",
    "postcode": "99439",
    "city": "Ballstedt",
    "lat": "51.05",
    "lng": "11.2167"
  },
  {
    "id": "51",
    "loc_id": "16961",
    "postcode": "09326",
    "city": "Geringswalde",
    "lat": "51.0833",
    "lng": "12.9167"
  },
  {
    "id": "52",
    "loc_id": "25426",
    "postcode": "32602",
    "city": "Vlotho",
    "lat": "52.16162",
    "lng": "8.85589000000004"
  },
  {
    "id": "53",
    "loc_id": "23295",
    "postcode": "07819",
    "city": "Rosendorf",
    "lat": "50.7667",
    "lng": "11.7833"
  },
  {
    "id": "54",
    "loc_id": "15741",
    "postcode": "06420",
    "city": "Domnitz",
    "lat": "51.63168",
    "lng": "11.8376900000001"
  },
  {
    "id": "55",
    "loc_id": "26367",
    "postcode": "17039",
    "city": "Woggersin",
    "lat": "53.60729",
    "lng": "13.2317399999999"
  },
  {
    "id": "56",
    "loc_id": "25968",
    "postcode": "14542",
    "city": "Werder (Havel)",
    "lat": "52.3708",
    "lng": "12.93238"
  },
  {
    "id": "57",
    "loc_id": "83936",
    "postcode": "73441",
    "city": "Neresheim Hohenlohe bei Bopfingen",
    "lat": "48.8166667",
    "lng": "10.2833333"
  },
  {
    "id": "58",
    "loc_id": "143625",
    "postcode": "18469",
    "city": "Velgast Manschenhagen",
    "lat": "54.2814335847514",
    "lng": "12.7796853915405"
  },
  {
    "id": "59",
    "loc_id": "17107",
    "postcode": "25348",
    "city": "Glückstadt",
    "lat": "53.788403",
    "lng": "9.423933"
  },
  {
    "id": "60",
    "loc_id": "20189",
    "postcode": "77839",
    "city": "Lichtenau (Baden)",
    "lat": "48.7333",
    "lng": "8.01667"
  },
  {
    "id": "61",
    "loc_id": "16037",
    "postcode": "85072",
    "city": "Eichstätt",
    "lat": "Bayern",
    "lng": "48.8975"
  },
  {
    "id": "62",
    "loc_id": "142675",
    "postcode": "15936",
    "city": "Ihlow bei Jüterbog Rietdorf",
    "lat": "51.8846",
    "lng": "13.37919"
  },
  {
    "id": "63",
    "loc_id": "17029",
    "postcode": "23909",
    "city": "Giesensdorf bei Ratzeburg",
    "lat": "53.68851",
    "lng": "10.71397"
  },
  {
    "id": "64",
    "loc_id": "20749",
    "postcode": "23847",
    "city": "Meddewade",
    "lat": "53.8096",
    "lng": "10.43967"
  },
  {
    "id": "65",
    "loc_id": "18055",
    "postcode": "46359",
    "city": "Heiden",
    "lat": "Kreis Borken",
    "lng": "51.82582"
  },
  {
    "id": "66",
    "loc_id": "116653",
    "postcode": "58454",
    "city": "Witten Stockum",
    "lat": "51.46789",
    "lng": "7.36652000000004"
  },
  {
    "id": "67",
    "loc_id": "15723",
    "postcode": "49770",
    "city": "Dohren",
    "lat": "Emsl",
    "lng": "52.64135"
  },
  {
    "id": "68",
    "loc_id": "25436",
    "postcode": "39393",
    "city": "Völpke",
    "lat": "52.1400461875647",
    "lng": "11.1023837301636"
  },
  {
    "id": "69",
    "loc_id": "13603",
    "postcode": "88499",
    "city": "Altheim bei Riedlingen (Württemberg)",
    "lat": "48.15",
    "lng": "9.45"
  },
  {
    "id": "70",
    "loc_id": "81574",
    "postcode": "68199",
    "city": "Mannheim Rheinau",
    "lat": "49.4252778",
    "lng": "8.53"
  },
  {
    "id": "71",
    "loc_id": "81574",
    "postcode": "68219",
    "city": "Mannheim Rheinau",
    "lat": "49.4252778",
    "lng": "8.53"
  },
  {
    "id": "72",
    "loc_id": "15457",
    "postcode": "78083",
    "city": "Dauchingen",
    "lat": "48.0833",
    "lng": "8.55"
  },
  {
    "id": "73",
    "loc_id": "26289",
    "postcode": "56814",
    "city": "Wirfus",
    "lat": "50.2",
    "lng": "7.2"
  },
  {
    "id": "74",
    "loc_id": "24139",
    "postcode": "30926",
    "city": "Seelze",
    "lat": "52.39501",
    "lng": "9.59397000000001"
  },
  {
    "id": "75",
    "loc_id": "14971",
    "postcode": "03096",
    "city": "Briesen",
    "lat": "Niederlausitz",
    "lng": "51.8167"
  },
  {
    "id": "76",
    "loc_id": "13787",
    "postcode": "94348",
    "city": "Atting bei Straubing",
    "lat": "48.9",
    "lng": "12.4833"
  },
  {
    "id": "77",
    "loc_id": "26618",
    "postcode": "23968",
    "city": "Zierow",
    "lat": "53.92742",
    "lng": "11.37768"
  },
  {
    "id": "78",
    "loc_id": "13772",
    "postcode": "71679",
    "city": "Asperg",
    "lat": "48.9",
    "lng": "9.11667"
  },
  {
    "id": "79",
    "loc_id": "21699",
    "postcode": "56179",
    "city": "Niederwerth",
    "lat": "50.4",
    "lng": "7.61667"
  },
  {
    "id": "80",
    "loc_id": "19683",
    "postcode": "97892",
    "city": "Kreuzwertheim",
    "lat": "49.7672",
    "lng": "9.51833"
  },
  {
    "id": "81",
    "loc_id": "24471",
    "postcode": "22145",
    "city": "Stapelfeld",
    "lat": "Bezirk Hamburg",
    "lng": "53.60558"
  },
  {
    "id": "82",
    "loc_id": "141960",
    "postcode": "04924",
    "city": "Bad Liebenwerda Lausitz",
    "lat": "51.5123",
    "lng": "13.35296"
  },
  {
    "id": "83",
    "loc_id": "23632",
    "postcode": "94571",
    "city": "Schaufling",
    "lat": "48.85",
    "lng": "13.0667"
  },
  {
    "id": "84",
    "loc_id": "118149",
    "postcode": "64743",
    "city": "Erbach (Odenwald) Marbach",
    "lat": "Odenwald",
    "lng": "49.6065"
  },
  {
    "id": "85",
    "loc_id": "17742",
    "postcode": "39398",
    "city": "Hadmersleben",
    "lat": "51.99174",
    "lng": "11.30197"
  },
  {
    "id": "86",
    "loc_id": "19464",
    "postcode": "06198",
    "city": "Kloschwitz",
    "lat": "51.58529",
    "lng": "11.7564"
  },
  {
    "id": "87",
    "loc_id": "13833",
    "postcode": "25548",
    "city": "Auufer",
    "lat": "53.923233",
    "lng": "9.681892"
  },
  {
    "id": "88",
    "loc_id": "25649",
    "postcode": "39606",
    "city": "Walsleben (Altmark)",
    "lat": "52.7582",
    "lng": "11.85445"
  },
  {
    "id": "89",
    "loc_id": "19897",
    "postcode": "24977",
    "city": "Langballig",
    "lat": "54.7970142576",
    "lng": "9.63691100533"
  },
  {
    "id": "90",
    "loc_id": "18577",
    "postcode": "19217",
    "city": "Holdorf bei Gadebusch",
    "lat": "53.72932",
    "lng": "11.06597"
  },
  {
    "id": "91",
    "loc_id": "16096",
    "postcode": "37412",
    "city": "Elbingerode",
    "lat": "Niedersachsen",
    "lng": "51.65898"
  },
  {
    "id": "92",
    "loc_id": "20096",
    "postcode": "36433",
    "city": "Leimbach bei Bad Salzungen",
    "lat": "50.8167",
    "lng": "10.2"
  },
  {
    "id": "93",
    "loc_id": "35885",
    "postcode": "06712",
    "city": "Elsteraue",
    "lat": "51.0833333333",
    "lng": "12.21168"
  },
  {
    "id": "94",
    "loc_id": "35885",
    "postcode": "06712",
    "city": "Elsteraue",
    "lat": "51.0833333333",
    "lng": "12.21168"
  },
  {
    "id": "95",
    "loc_id": "35885",
    "postcode": "06729",
    "city": "Elsteraue",
    "lat": "51.0833333333",
    "lng": "12.21168"
  },
  {
    "id": "96",
    "loc_id": "35885",
    "postcode": "06729",
    "city": "Elsteraue",
    "lat": "51.0833333333",
    "lng": "12.21168"
  },
  {
    "id": "97",
    "loc_id": "35885",
    "postcode": "06712",
    "city": "Elsteraue",
    "lat": "51.0833333333",
    "lng": "12.21168"
  },
  {
    "id": "98",
    "loc_id": "35885",
    "postcode": "06712",
    "city": "Elsteraue",
    "lat": "51.0833333333",
    "lng": "12.21168"
  },
  {
    "id": "99",
    "loc_id": "35885",
    "postcode": "06712",
    "city": "Elsteraue",
    "lat": "51.0833333333",
    "lng": "12.21168"
  },
  {
    "id": "100",
    "loc_id": "35885",
    "postcode": "06712",
    "city": "Elsteraue",
    "lat": "51.0833333333",
    "lng": "12.21168"
  },
  {
    "id": "101",
    "loc_id": "35885",
    "postcode": "06729",
    "city": "Elsteraue",
    "lat": "51.0833333333",
    "lng": "12.21168"
  },
  {
    "id": "102",
    "loc_id": "35885",
    "postcode": "06729",
    "city": "Elsteraue",
    "lat": "51.0833333333",
    "lng": "12.21168"
  },
  {
    "id": "103",
    "loc_id": "35885",
    "postcode": "06712",
    "city": "Elsteraue",
    "lat": "51.0833333333",
    "lng": "12.21168"
  },
  {
    "id": "104",
    "loc_id": "35885",
    "postcode": "06712",
    "city": "Elsteraue",
    "lat": "51.0833333333",
    "lng": "12.21168"
  },
  {
    "id": "105",
    "loc_id": "14758",
    "postcode": "39606",
    "city": "Boock (Altmark)",
    "lat": "52.78782",
    "lng": "11.53955"
  },
  {
    "id": "106",
    "loc_id": "19869",
    "postcode": "18069",
    "city": "Lambrechtshagen",
    "lat": "54.10206",
    "lng": "12.01595"
  },
  {
    "id": "107",
    "loc_id": "16245",
    "postcode": "75031",
    "city": "Eppingen",
    "lat": "49.1369",
    "lng": "8.91028"
  },
  {
    "id": "108",
    "loc_id": "20991",
    "postcode": "39291",
    "city": "Möckern bei Burg",
    "lat": "52.15239",
    "lng": "11.95359"
  },
  {
    "id": "109",
    "loc_id": "143934",
    "postcode": "17509",
    "city": "Kemnitz bei Greifswald Kemnitzerhagen",
    "lat": "54.0630732633445",
    "lng": "13.5423610687255"
  },
  {
    "id": "110",
    "loc_id": "20890",
    "postcode": "55777",
    "city": "Mettweiler",
    "lat": "49.5833",
    "lng": "7.31667"
  },
  {
    "id": "111",
    "loc_id": "22281",
    "postcode": "87466",
    "city": "Oy-Mittelberg",
    "lat": "47.6333",
    "lng": "10.4333"
  },
  {
    "id": "112",
    "loc_id": "25235",
    "postcode": "36414",
    "city": "Unterbreizbach",
    "lat": "50.8167",
    "lng": "9.98333"
  },
  {
    "id": "113",
    "loc_id": "15515",
    "postcode": "66871",
    "city": "Dennweiler-Frohnbach",
    "lat": "49.5833",
    "lng": "7.38333"
  },
  {
    "id": "114",
    "loc_id": "18185",
    "postcode": "24558",
    "city": "Henstedt-Ulzburg",
    "lat": "53.79032",
    "lng": "9.9803"
  },
  {
    "id": "115",
    "loc_id": "19544",
    "postcode": "61462",
    "city": "Königstein im Taunus",
    "lat": "50.1833",
    "lng": "8.46667"
  },
  {
    "id": "116",
    "loc_id": "144287",
    "postcode": "18546",
    "city": "Sassnitz Dubnitz",
    "lat": "54.49743",
    "lng": "13.58208"
  },
  {
    "id": "117",
    "loc_id": "15014",
    "postcode": "66892",
    "city": "Bruchmühlbach-Miesau",
    "lat": "49.3833",
    "lng": "7.43333"
  },
  {
    "id": "118",
    "loc_id": "25021",
    "postcode": "99958",
    "city": "Tonna",
    "lat": "51.075",
    "lng": "10.7333"
  },
  {
    "id": "119",
    "loc_id": "19328",
    "postcode": "53539",
    "city": "Kirsbach",
    "lat": "50.3333",
    "lng": "7"
  },
  {
    "id": "120",
    "loc_id": "18491",
    "postcode": "17111",
    "city": "Hohenbollentin",
    "lat": "53.78846",
    "lng": "13.02097"
  },
  {
    "id": "121",
    "loc_id": "144236",
    "postcode": "18581",
    "city": "Putbus Darsband",
    "lat": "54.36024",
    "lng": "13.465583"
  },
  {
    "id": "122",
    "loc_id": "22568",
    "postcode": "56829",
    "city": "Pommern",
    "lat": "Mosel",
    "lng": "50.1667"
  },
  {
    "id": "123",
    "loc_id": "16623",
    "postcode": "06449",
    "city": "Freckleben",
    "lat": "51.7015",
    "lng": "11.54749"
  },
  {
    "id": "124",
    "loc_id": "16804",
    "postcode": "83674",
    "city": "Gaißach",
    "lat": "Oberbayern",
    "lng": "47.75"
  },
  {
    "id": "125",
    "loc_id": "15790",
    "postcode": "25582",
    "city": "Drage bei Hohenaspe",
    "lat": "54.003443",
    "lng": "9.519824"
  },
  {
    "id": "126",
    "loc_id": "18421",
    "postcode": "79862",
    "city": "Höchenschwand",
    "lat": "47.7333",
    "lng": "8.16667"
  },
  {
    "id": "127",
    "loc_id": "142089",
    "postcode": "15370",
    "city": "Fredersdorf-Vogelsdorf Fredersdorf bei Berlin",
    "lat": "52.53176",
    "lng": "13.75567"
  },
  {
    "id": "128",
    "loc_id": "15242",
    "postcode": "26969",
    "city": "Butjadingen",
    "lat": "53.5501577338822",
    "lng": "8.33328338623051"
  },
  {
    "id": "129",
    "loc_id": "13593",
    "postcode": "39596",
    "city": "Altenzaun",
    "lat": "52.7402",
    "lng": "12.02574"
  },
  {
    "id": "130",
    "loc_id": "24920",
    "postcode": "06766",
    "city": "Bitterfeld-Wolfen Thalheim bei Wolfen",
    "lat": "51.6492515257275",
    "lng": "12.2296391217042"
  },
  {
    "id": "131",
    "loc_id": "24022",
    "postcode": "90596",
    "city": "Schwanstetten",
    "lat": "49.3",
    "lng": "11.1167"
  },
  {
    "id": "132",
    "loc_id": "17684",
    "postcode": "16866",
    "city": "Gumtow",
    "lat": "52.97835",
    "lng": "12.24995"
  },
  {
    "id": "133",
    "loc_id": "20951",
    "postcode": "17252",
    "city": "Mirow",
    "lat": "Mecklenburg",
    "lng": "53.27331"
  },
  {
    "id": "134",
    "loc_id": "15772",
    "postcode": "26553",
    "city": "Dornum",
    "lat": "Ostfriesland",
    "lng": "53.6555"
  },
  {
    "id": "135",
    "loc_id": "13571",
    "postcode": "24161",
    "city": "Altenholz",
    "lat": "54.4016457700682",
    "lng": "10.1185690820218"
  },
  {
    "id": "136",
    "loc_id": "23665",
    "postcode": "39638",
    "city": "Schenkenhorst",
    "lat": "Altmark",
    "lng": "52.60278"
  },
  {
    "id": "137",
    "loc_id": "21044",
    "postcode": "39291",
    "city": "Möser",
    "lat": "52.2179007832045",
    "lng": "11.7914654867554"
  },
  {
    "id": "138",
    "loc_id": "26532",
    "postcode": "96199",
    "city": "Zapfendorf",
    "lat": "50.0333",
    "lng": "10.9333"
  },
  {
    "id": "139",
    "loc_id": "142779",
    "postcode": "17291",
    "city": "Carmzow-Wallmow Wallmow",
    "lat": "53.34133",
    "lng": "14.08544"
  },
  {
    "id": "140",
    "loc_id": "17568",
    "postcode": "09518",
    "city": "Großrückerswalde",
    "lat": "50.6333",
    "lng": "13.1167"
  },
  {
    "id": "141",
    "loc_id": "144154",
    "postcode": "18528",
    "city": "Bergen auf Rügen Silvitz",
    "lat": "54.395833",
    "lng": "13.503478"
  },
  {
    "id": "142",
    "loc_id": "23926",
    "postcode": "48624",
    "city": "Schöppingen",
    "lat": "52.0940944626722",
    "lng": "7.23706363494875"
  },
  {
    "id": "143",
    "loc_id": "26551",
    "postcode": "56477",
    "city": "Zehnhausen bei Rennerod",
    "lat": "50.65",
    "lng": "8.06667"
  },
  {
    "id": "144",
    "loc_id": "22665",
    "postcode": "54668",
    "city": "Prümzurlay",
    "lat": "49.8667",
    "lng": "6.43333"
  },
  {
    "id": "145",
    "loc_id": "14016",
    "postcode": "33181",
    "city": "Bad Wünnenberg",
    "lat": "51.51728",
    "lng": "8.69938999999999"
  },
  {
    "id": "146",
    "loc_id": "24891",
    "postcode": "19376",
    "city": "Tessenow",
    "lat": "53.35421",
    "lng": "11.89909"
  },
  {
    "id": "147",
    "loc_id": "23699",
    "postcode": "54429",
    "city": "Schillingen",
    "lat": "49.6333",
    "lng": "6.78333"
  },
  {
    "id": "148",
    "loc_id": "19488",
    "postcode": "75438",
    "city": "Knittlingen",
    "lat": "49.0275",
    "lng": "8.75389"
  },
  {
    "id": "149",
    "loc_id": "144137",
    "postcode": "18573",
    "city": "Altefähr Klein Bandelvitz",
    "lat": "54.31525",
    "lng": "13.1589300000001"
  },
  {
    "id": "150",
    "loc_id": "18994",
    "postcode": "26571",
    "city": "Juist",
    "lat": "53.6768",
    "lng": "6.99253"
  },
  {
    "id": "151",
    "loc_id": "21493",
    "postcode": "47506",
    "city": "Neukirchen-Vluyn",
    "lat": "51.4425108617499",
    "lng": "6.55381946563716"
  },
  {
    "id": "152",
    "loc_id": "22364",
    "postcode": "04657",
    "city": "Penig",
    "lat": "50.9333",
    "lng": "12.7167"
  },
  {
    "id": "153",
    "loc_id": "22364",
    "postcode": "09322",
    "city": "Penig",
    "lat": "50.9333",
    "lng": "12.7167"
  },
  {
    "id": "154",
    "loc_id": "17516",
    "postcode": "17337",
    "city": "Groß Luckow",
    "lat": "53.53538",
    "lng": "13.83227"
  },
  {
    "id": "155",
    "loc_id": "25440",
    "postcode": "15890",
    "city": "Vogelsang",
    "lat": "52.18197",
    "lng": "14.66392"
  },
  {
    "id": "156",
    "loc_id": "22145",
    "postcode": "25588",
    "city": "Oldendorf",
    "lat": "Holstein",
    "lng": "53.953409"
  },
  {
    "id": "157",
    "loc_id": "19420",
    "postcode": "66484",
    "city": "Kleinsteinhausen",
    "lat": "49.2",
    "lng": "7.46667"
  },
  {
    "id": "158",
    "loc_id": "22115",
    "postcode": "55234",
    "city": "Offenheim",
    "lat": "Rheinhessen",
    "lng": "49.7256"
  },
  {
    "id": "159",
    "loc_id": "18483",
    "postcode": "04808",
    "city": "Hohburg bei Wurzen",
    "lat": "51.41241",
    "lng": "12.80066"
  },
  {
    "id": "160",
    "loc_id": "23240",
    "postcode": "18182",
    "city": "Rövershagen",
    "lat": "54.17642",
    "lng": "12.23382"
  },
  {
    "id": "161",
    "loc_id": "13522",
    "postcode": "99195",
    "city": "Alperstedt",
    "lat": "51.1",
    "lng": "11.05"
  },
  {
    "id": "162",
    "loc_id": "21571",
    "postcode": "01844",
    "city": "Neustadt in Sachsen",
    "lat": "51.02528",
    "lng": "14.2111"
  },
  {
    "id": "163",
    "loc_id": "21548",
    "postcode": "94556",
    "city": "Neuschönau",
    "lat": "48.8833",
    "lng": "13.4833"
  },
  {
    "id": "164",
    "loc_id": "26096",
    "postcode": "31719",
    "city": "Wiedensahl",
    "lat": "52.3825",
    "lng": "9.11936"
  },
  {
    "id": "165",
    "loc_id": "16262",
    "postcode": "50374",
    "city": "Erftstadt",
    "lat": "50.8167",
    "lng": "6.76667"
  },
  {
    "id": "166",
    "loc_id": "19748",
    "postcode": "23628",
    "city": "Krummesse",
    "lat": "53.78038",
    "lng": "10.64071"
  },
  {
    "id": "167",
    "loc_id": "20694",
    "postcode": "06528",
    "city": "Martinsrieth",
    "lat": "51.4404161454338",
    "lng": "11.2447154815674"
  },
  {
    "id": "168",
    "loc_id": "24761",
    "postcode": "55758",
    "city": "Sulzbach bei Idar-Oberstein",
    "lat": "49.8333",
    "lng": "7.33333"
  },
  {
    "id": "169",
    "loc_id": "20889",
    "postcode": "40822",
    "city": "Mettmann",
    "lat": "51.25097",
    "lng": "6.97401000000002"
  },
  {
    "id": "170",
    "loc_id": "18343",
    "postcode": "91161",
    "city": "Hilpoltstein",
    "lat": "Mittelfranken",
    "lng": "49.19"
  },
  {
    "id": "171",
    "loc_id": "26083",
    "postcode": "06536",
    "city": "Wickerode",
    "lat": "51.47671",
    "lng": "11.13207"
  },
  {
    "id": "172",
    "loc_id": "15779",
    "postcode": "44135",
    "city": "Dortmund",
    "lat": "51.504225397481",
    "lng": "7.48365411122495"
  },
  {
    "id": "173",
    "loc_id": "15779",
    "postcode": "44137",
    "city": "Dortmund",
    "lat": "51.504225397481",
    "lng": "7.48365411122495"
  },
  {
    "id": "174",
    "loc_id": "15779",
    "postcode": "44139",
    "city": "Dortmund",
    "lat": "51.504225397481",
    "lng": "7.48365411122495"
  },
  {
    "id": "175",
    "loc_id": "15779",
    "postcode": "44141",
    "city": "Dortmund",
    "lat": "51.504225397481",
    "lng": "7.48365411122495"
  },
  {
    "id": "176",
    "loc_id": "15779",
    "postcode": "44143",
    "city": "Dortmund",
    "lat": "51.504225397481",
    "lng": "7.48365411122495"
  },
  {
    "id": "177",
    "loc_id": "15779",
    "postcode": "44145",
    "city": "Dortmund",
    "lat": "51.504225397481",
    "lng": "7.48365411122495"
  },
  {
    "id": "178",
    "loc_id": "15779",
    "postcode": "44147",
    "city": "Dortmund",
    "lat": "51.504225397481",
    "lng": "7.48365411122495"
  },
  {
    "id": "179",
    "loc_id": "15779",
    "postcode": "44149",
    "city": "Dortmund",
    "lat": "51.504225397481",
    "lng": "7.48365411122495"
  },
  {
    "id": "180",
    "loc_id": "15779",
    "postcode": "44225",
    "city": "Dortmund",
    "lat": "51.504225397481",
    "lng": "7.48365411122495"
  },
  {
    "id": "181",
    "loc_id": "15779",
    "postcode": "44227",
    "city": "Dortmund",
    "lat": "51.504225397481",
    "lng": "7.48365411122495"
  },
  {
    "id": "182",
    "loc_id": "15779",
    "postcode": "44229",
    "city": "Dortmund",
    "lat": "51.504225397481",
    "lng": "7.48365411122495"
  },
  {
    "id": "183",
    "loc_id": "15779",
    "postcode": "44263",
    "city": "Dortmund",
    "lat": "51.504225397481",
    "lng": "7.48365411122495"
  },
  {
    "id": "184",
    "loc_id": "15779",
    "postcode": "44265",
    "city": "Dortmund",
    "lat": "51.504225397481",
    "lng": "7.48365411122495"
  },
  {
    "id": "185",
    "loc_id": "15779",
    "postcode": "44267",
    "city": "Dortmund",
    "lat": "51.504225397481",
    "lng": "7.48365411122495"
  },
  {
    "id": "186",
    "loc_id": "15779",
    "postcode": "44269",
    "city": "Dortmund",
    "lat": "51.504225397481",
    "lng": "7.48365411122495"
  },
  {
    "id": "187",
    "loc_id": "15779",
    "postcode": "44287",
    "city": "Dortmund",
    "lat": "51.504225397481",
    "lng": "7.48365411122495"
  },
  {
    "id": "188",
    "loc_id": "15779",
    "postcode": "44289",
    "city": "Dortmund",
    "lat": "51.504225397481",
    "lng": "7.48365411122495"
  },
  {
    "id": "189",
    "loc_id": "15779",
    "postcode": "44309",
    "city": "Dortmund",
    "lat": "51.504225397481",
    "lng": "7.48365411122495"
  },
  {
    "id": "190",
    "loc_id": "15779",
    "postcode": "44319",
    "city": "Dortmund",
    "lat": "51.504225397481",
    "lng": "7.48365411122495"
  },
  {
    "id": "191",
    "loc_id": "15779",
    "postcode": "44328",
    "city": "Dortmund",
    "lat": "51.504225397481",
    "lng": "7.48365411122495"
  },
  {
    "id": "192",
    "loc_id": "15779",
    "postcode": "44329",
    "city": "Dortmund",
    "lat": "51.504225397481",
    "lng": "7.48365411122495"
  },
  {
    "id": "193",
    "loc_id": "15779",
    "postcode": "44339",
    "city": "Dortmund",
    "lat": "51.504225397481",
    "lng": "7.48365411122495"
  },
  {
    "id": "194",
    "loc_id": "15779",
    "postcode": "44357",
    "city": "Dortmund",
    "lat": "51.504225397481",
    "lng": "7.48365411122495"
  },
  {
    "id": "195",
    "loc_id": "15779",
    "postcode": "44359",
    "city": "Dortmund",
    "lat": "51.504225397481",
    "lng": "7.48365411122495"
  },
  {
    "id": "196",
    "loc_id": "15779",
    "postcode": "44369",
    "city": "Dortmund",
    "lat": "51.504225397481",
    "lng": "7.48365411122495"
  },
  {
    "id": "197",
    "loc_id": "15779",
    "postcode": "44379",
    "city": "Dortmund",
    "lat": "51.504225397481",
    "lng": "7.48365411122495"
  },
  {
    "id": "198",
    "loc_id": "15779",
    "postcode": "44388",
    "city": "Dortmund",
    "lat": "51.504225397481",
    "lng": "7.48365411122495"
  },
  {
    "id": "199",
    "loc_id": "142657",
    "postcode": "15837",
    "city": "Baruth / Mark Radeland bei Baruth",
    "lat": "Mark",
    "lng": "52.05255"
  },
  {
    "id": "200",
    "loc_id": "19045",
    "postcode": "53520",
    "city": "Kaltenborn bei Adenau",
    "lat": "50.4",
    "lng": "7.01667"
  },
  {
    "id": "201",
    "loc_id": "23750",
    "postcode": "24837",
    "city": "Schleswig",
    "lat": "54.51808",
    "lng": "9.57038"
  },
  {
    "id": "202",
    "loc_id": "110580",
    "postcode": "29683",
    "city": "Heidekreis Wense bei Dorfmark",
    "lat": "52.92123",
    "lng": "9.82285000000002"
  },
  {
    "id": "203",
    "loc_id": "22376",
    "postcode": "94366",
    "city": "Perasdorf",
    "lat": "48.95",
    "lng": "12.8"
  },
  {
    "id": "204",
    "loc_id": "15332",
    "postcode": "74564",
    "city": "Crailsheim",
    "lat": "49.15",
    "lng": "10.0833"
  },
  {
    "id": "205",
    "loc_id": "26432",
    "postcode": "96197",
    "city": "Wonsees",
    "lat": "49.9833",
    "lng": "11.3"
  },
  {
    "id": "206",
    "loc_id": "21771",
    "postcode": "88149",
    "city": "Nonnenhorn",
    "lat": "47.5833",
    "lng": "9.61667"
  },
  {
    "id": "207",
    "loc_id": "21409",
    "postcode": "49828",
    "city": "Neuenhaus",
    "lat": "Dinkel",
    "lng": "52.4965452599612"
  },
  {
    "id": "208",
    "loc_id": "25359",
    "postcode": "84149",
    "city": "Velden",
    "lat": "Vils",
    "lng": "48.3667"
  },
  {
    "id": "209",
    "loc_id": "26020",
    "postcode": "87679",
    "city": "Westendorf bei Kaufbeuren",
    "lat": "47.9333",
    "lng": "10.7167"
  },
  {
    "id": "210",
    "loc_id": "14653",
    "postcode": "55294",
    "city": "Bodenheim",
    "lat": "Rhein",
    "lng": "49.9353"
  },
  {
    "id": "211",
    "loc_id": "16019",
    "postcode": "02739",
    "city": "Eibau",
    "lat": "50.98658",
    "lng": "14.65369"
  },
  {
    "id": "212",
    "loc_id": "22850",
    "postcode": "55471",
    "city": "Ravengiersburg",
    "lat": "49.9333",
    "lng": "7.48333"
  },
  {
    "id": "213",
    "loc_id": "112856",
    "postcode": "47804",
    "city": "Krefeld Fischeln",
    "lat": "51.3050710630849",
    "lng": "6.60032777631841"
  },
  {
    "id": "214",
    "loc_id": "112856",
    "postcode": "47805",
    "city": "Krefeld Fischeln",
    "lat": "51.3050710630849",
    "lng": "6.60032777631841"
  },
  {
    "id": "215",
    "loc_id": "112856",
    "postcode": "47807",
    "city": "Krefeld Fischeln",
    "lat": "51.3050710630849",
    "lng": "6.60032777631841"
  },
  {
    "id": "216",
    "loc_id": "112856",
    "postcode": "47809",
    "city": "Krefeld Fischeln",
    "lat": "51.3050710630849",
    "lng": "6.60032777631841"
  },
  {
    "id": "217",
    "loc_id": "25683",
    "postcode": "06318",
    "city": "Wansleben am See",
    "lat": "51.4617",
    "lng": "11.7483999999999"
  },
  {
    "id": "218",
    "loc_id": "13858",
    "postcode": "89429",
    "city": "Bachhagel",
    "lat": "48.6333",
    "lng": "10.3167"
  },
  {
    "id": "219",
    "loc_id": "16941",
    "postcode": "99887",
    "city": "Georgenthal / Thüringer Wald",
    "lat": "50.8167",
    "lng": "10.6667"
  },
  {
    "id": "220",
    "loc_id": "22886",
    "postcode": "95194",
    "city": "Regnitzlosau",
    "lat": "50.3",
    "lng": "12.05"
  },
  {
    "id": "221",
    "loc_id": "24102",
    "postcode": "38179",
    "city": "Schwülper",
    "lat": "52.3562647621326",
    "lng": "10.4319696243288"
  },
  {
    "id": "222",
    "loc_id": "25630",
    "postcode": "74599",
    "city": "Wallhausen (Württemberg)",
    "lat": "49.211",
    "lng": "10.063"
  },
  {
    "id": "223",
    "loc_id": "14955",
    "postcode": "56479",
    "city": "Bretthausen bei Rennerod",
    "lat": "50.6667",
    "lng": "8.06667"
  },
  {
    "id": "224",
    "loc_id": "16119",
    "postcode": "24589",
    "city": "Ellerdorf",
    "lat": "54.1930774566587",
    "lng": "9.84013468170718"
  },
  {
    "id": "225",
    "loc_id": "16462",
    "postcode": "24242",
    "city": "Felde",
    "lat": "Holstein",
    "lng": "54.2972792118201"
  },
  {
    "id": "226",
    "loc_id": "19539",
    "postcode": "38154",
    "city": "Königslutter am Elm",
    "lat": "52.25248",
    "lng": "10.8140100000001"
  },
  {
    "id": "227",
    "loc_id": "24602",
    "postcode": "87778",
    "city": "Stetten",
    "lat": "Schwaben",
    "lng": "48.0333"
  },
  {
    "id": "228",
    "loc_id": "124821",
    "postcode": "84405",
    "city": "Obertaufkirchen Brunn bei Dorfen",
    "lat": "Stadt",
    "lng": "48.24358"
  },
  {
    "id": "229",
    "loc_id": "50063",
    "postcode": "98530",
    "city": "Grub bei Suhl",
    "lat": "50.549722",
    "lng": "10.633056"
  },
  {
    "id": "230",
    "loc_id": "14444",
    "postcode": "37688",
    "city": "Beverungen",
    "lat": "51.6685",
    "lng": "9.37233000000003"
  },
  {
    "id": "231",
    "loc_id": "106002",
    "postcode": "24939",
    "city": "Flensburg Nordstadt",
    "lat": "54.81037",
    "lng": "9.42185"
  },
  {
    "id": "232",
    "loc_id": "106002",
    "postcode": "24939",
    "city": "Flensborg Nordstadt",
    "lat": "54.81037",
    "lng": "9.42185"
  },
  {
    "id": "233",
    "loc_id": "21200",
    "postcode": "56294",
    "city": "Münstermaifeld",
    "lat": "50.25",
    "lng": "7.36667"
  },
  {
    "id": "234",
    "loc_id": "18193",
    "postcode": "55758",
    "city": "Herborn bei Idar-Oberstein",
    "lat": "49.7667",
    "lng": "7.3"
  },
  {
    "id": "235",
    "loc_id": "21965",
    "postcode": "86507",
    "city": "Oberottmarshausen",
    "lat": "48.2333",
    "lng": "10.85"
  },
  {
    "id": "236",
    "loc_id": "14583",
    "postcode": "06528",
    "city": "Blankenheim bei Sangerhausen",
    "lat": "51.50711",
    "lng": "11.42819"
  },
  {
    "id": "237",
    "loc_id": "15505",
    "postcode": "39579",
    "city": "Demker",
    "lat": "52.50601",
    "lng": "11.85559"
  },
  {
    "id": "238",
    "loc_id": "17871",
    "postcode": "67374",
    "city": "Hanhofen",
    "lat": "49.3167",
    "lng": "8.34083"
  },
  {
    "id": "239",
    "loc_id": "17045",
    "postcode": "73333",
    "city": "Gingen an der Fils",
    "lat": "48.65",
    "lng": "9.78333"
  },
  {
    "id": "240",
    "loc_id": "25565",
    "postcode": "07646",
    "city": "Waldeck bei Stadtroda",
    "lat": "50.9167",
    "lng": "11.7833"
  },
  {
    "id": "241",
    "loc_id": "16996",
    "postcode": "23815",
    "city": "Geschendorf",
    "lat": "53.92216",
    "lng": "10.4402"
  },
  {
    "id": "242",
    "loc_id": "107802",
    "postcode": "38667",
    "city": "Altenau",
    "lat": "Harz Torfhaus",
    "lng": "Harz"
  },
  {
    "id": "243",
    "loc_id": "21143",
    "postcode": "84453",
    "city": "Mühldorf am Inn",
    "lat": "48.25",
    "lng": "12.5333"
  },
  {
    "id": "244",
    "loc_id": "17062",
    "postcode": "66887",
    "city": "Glanbrücken",
    "lat": "49.6167",
    "lng": "7.53333"
  },
  {
    "id": "245",
    "loc_id": "20766",
    "postcode": "67678",
    "city": "Mehlingen",
    "lat": "49.5",
    "lng": "7.85"
  },
  {
    "id": "246",
    "loc_id": "15067",
    "postcode": "56290",
    "city": "Buch",
    "lat": "Hunsrück",
    "lng": "50.0833"
  },
  {
    "id": "247",
    "loc_id": "17920",
    "postcode": "67376",
    "city": "Harthausen",
    "lat": "Pfalz",
    "lng": "49.2942"
  },
  {
    "id": "248",
    "loc_id": "142962",
    "postcode": "18059",
    "city": "Pölchow Huckstorf",
    "lat": "53.9844",
    "lng": "12.11161"
  },
  {
    "id": "249",
    "loc_id": "21627",
    "postcode": "16248",
    "city": "Niederfinow",
    "lat": "52.84009",
    "lng": "13.93726"
  },
  {
    "id": "250",
    "loc_id": "15199",
    "postcode": "91595",
    "city": "Burgoberbach",
    "lat": "49.2333",
    "lng": "10.5833"
  },
  {
    "id": "251",
    "loc_id": "25161",
    "postcode": "17291",
    "city": "Uckerfelde",
    "lat": "53.2658983330896",
    "lng": "13.9486755554199"
  },
  {
    "id": "252",
    "loc_id": "22390",
    "postcode": "07616",
    "city": "Petersberg bei Eisenberg",
    "lat": "50.9833",
    "lng": "11.8333"
  },
  {
    "id": "253",
    "loc_id": "24282",
    "postcode": "24887",
    "city": "Silberstedt",
    "lat": "54.5180797040668",
    "lng": "9.37611654544417"
  },
  {
    "id": "254",
    "loc_id": "23220",
    "postcode": "72587",
    "city": "Römerstein",
    "lat": "48.4962",
    "lng": "9.51482"
  },
  {
    "id": "255",
    "loc_id": "25889",
    "postcode": "19412",
    "city": "Weitendorf bei Sternberg",
    "lat": "53.71757",
    "lng": "11.7510600000001"
  },
  {
    "id": "256",
    "loc_id": "18038",
    "postcode": "31622",
    "city": "Heemsen",
    "lat": "52.70526",
    "lng": "9.25217999999995"
  },
  {
    "id": "257",
    "loc_id": "19517",
    "postcode": "97953",
    "city": "Königheim",
    "lat": "49.6203",
    "lng": "9.59583"
  },
  {
    "id": "258",
    "loc_id": "143536",
    "postcode": "18513",
    "city": "Glewitz bei Grimmen Jahnkow",
    "lat": "54.01465",
    "lng": "12.96282"
  },
  {
    "id": "259",
    "loc_id": "144060",
    "postcode": "19374",
    "city": "Grebbin Kossebade",
    "lat": "53.53182",
    "lng": "11.8413"
  },
  {
    "id": "260",
    "loc_id": "152936",
    "postcode": "18546",
    "city": "Sassnitz Klementelvitz",
    "lat": "54.523786",
    "lng": "13.59488"
  },
  {
    "id": "261",
    "loc_id": "142221",
    "postcode": "16818",
    "city": "Märkisch Linden Kränzlin",
    "lat": "52.92812",
    "lng": "12.74622"
  },
  {
    "id": "262",
    "loc_id": "18552",
    "postcode": "17194",
    "city": "Hohen Wangelin",
    "lat": "53.61457",
    "lng": "12.42616"
  },
  {
    "id": "263",
    "loc_id": "23604",
    "postcode": "82069",
    "city": "Schäftlarn",
    "lat": "47.9833",
    "lng": "11.4667"
  },
  {
    "id": "264",
    "loc_id": "21899",
    "postcode": "56237",
    "city": "Oberhaid",
    "lat": "Westerwald",
    "lng": "50.5167"
  },
  {
    "id": "265",
    "loc_id": "143437",
    "postcode": "17349",
    "city": "Lindetal Ballin",
    "lat": "53.4584697793125",
    "lng": "13.4285967407227"
  },
  {
    "id": "266",
    "loc_id": "19949",
    "postcode": "07937",
    "city": "Langenwolschendorf",
    "lat": "50.6333",
    "lng": "11.9667"
  },
  {
    "id": "267",
    "loc_id": "24223",
    "postcode": "89129",
    "city": "Setzingen",
    "lat": "48.5333",
    "lng": "10.1333"
  },
  {
    "id": "268",
    "loc_id": "22127",
    "postcode": "66903",
    "city": "Ohmbach",
    "lat": "Pfalz",
    "lng": "49.45"
  },
  {
    "id": "269",
    "loc_id": "126955",
    "postcode": "83374",
    "city": "Traunreut Zweckham",
    "lat": "47.9667",
    "lng": "12.6"
  },
  {
    "id": "270",
    "loc_id": "15559",
    "postcode": "55278",
    "city": "Dexheim",
    "lat": "49.8472",
    "lng": "8.31667"
  },
  {
    "id": "271",
    "loc_id": "13488",
    "postcode": "49594",
    "city": "Alfhausen",
    "lat": "52.5028475552629",
    "lng": "7.95377655029301"
  },
  {
    "id": "272",
    "loc_id": "23905",
    "postcode": "08304",
    "city": "Schönheide",
    "lat": "Erzgebirge",
    "lng": "50.5"
  },
  {
    "id": "273",
    "loc_id": "20162",
    "postcode": "53547",
    "city": "Leubsdorf",
    "lat": "Rhein",
    "lng": "50.55"
  },
  {
    "id": "274",
    "loc_id": "143834",
    "postcode": "19069",
    "city": "Seehof bei Schwerin Hundorf bei Schwerin",
    "lat": "Mecklenburg",
    "lng": "53.70483"
  },
  {
    "id": "275",
    "loc_id": "18831",
    "postcode": "86570",
    "city": "Inchenhofen",
    "lat": "48.5167",
    "lng": "11.1167"
  },
  {
    "id": "276",
    "loc_id": "18556",
    "postcode": "93480",
    "city": "Hohenwarth bei Kötzting",
    "lat": "49.2",
    "lng": "12.9333"
  },
  {
    "id": "277",
    "loc_id": "13505",
    "postcode": "78476",
    "city": "Allensbach",
    "lat": "47.7167",
    "lng": "9.06667"
  },
  {
    "id": "278",
    "loc_id": "26380",
    "postcode": "88364",
    "city": "Wolfegg (Allgäu)",
    "lat": "47.8167",
    "lng": "9.8"
  },
  {
    "id": "279",
    "loc_id": "142038",
    "postcode": "14715",
    "city": "Havelaue Parey",
    "lat": "52.67825",
    "lng": "12.24645"
  },
  {
    "id": "280",
    "loc_id": "24819",
    "postcode": "09468",
    "city": "Tannenberg",
    "lat": "Erzgebirge",
    "lng": "50.6"
  },
  {
    "id": "281",
    "loc_id": "142299",
    "postcode": "14778",
    "city": "Beetzseeheide Gortz",
    "lat": "52.51273",
    "lng": "12.64399"
  },
  {
    "id": "282",
    "loc_id": "19660",
    "postcode": "37547",
    "city": "Kreiensen",
    "lat": "51.8539",
    "lng": "9.96584000000007"
  },
  {
    "id": "283",
    "loc_id": "15892",
    "postcode": "73568",
    "city": "Durlangen",
    "lat": "48.85",
    "lng": "9.8"
  },
  {
    "id": "284",
    "loc_id": "25696",
    "postcode": "19230",
    "city": "Warlitz",
    "lat": "53.3782",
    "lng": "11.14941"
  },
  {
    "id": "285",
    "loc_id": "23953",
    "postcode": "39619",
    "city": "Schrampe",
    "lat": "52.89289",
    "lng": "11.44271"
  },
  {
    "id": "286",
    "loc_id": "25063",
    "postcode": "95367",
    "city": "Trebgast",
    "lat": "50.0667",
    "lng": "11.55"
  },
  {
    "id": "287",
    "loc_id": "25037",
    "postcode": "56841",
    "city": "Traben-Trarbach",
    "lat": "49.95",
    "lng": "7.11667"
  },
  {
    "id": "288",
    "loc_id": "22473",
    "postcode": "83132",
    "city": "Pittenhart",
    "lat": "47.9833",
    "lng": "12.3833"
  },
  {
    "id": "289",
    "loc_id": "16725",
    "postcode": "34621",
    "city": "Frielendorf",
    "lat": "50.9833",
    "lng": "9.33333"
  },
  {
    "id": "290",
    "loc_id": "109434",
    "postcode": "29229",
    "city": "Winsen (Aller) Wittbeck",
    "lat": "52.6929",
    "lng": "10.0216"
  },
  {
    "id": "291",
    "loc_id": "25585",
    "postcode": "55444",
    "city": "Waldlaubersheim",
    "lat": "49.9333",
    "lng": "7.83333"
  },
  {
    "id": "292",
    "loc_id": "16289",
    "postcode": "97837",
    "city": "Erlenbach bei Marktheidenfeld",
    "lat": "49.8194",
    "lng": "9.62889"
  },
  {
    "id": "293",
    "loc_id": "25103",
    "postcode": "22946",
    "city": "Trittau",
    "lat": "53.61096",
    "lng": "10.40473"
  },
  {
    "id": "294",
    "loc_id": "22153",
    "postcode": "59399",
    "city": "Olfen",
    "lat": "Westfalen",
    "lng": "51.7086"
  },
  {
    "id": "295",
    "loc_id": "21257",
    "postcode": "66909",
    "city": "Nanzdietschweiler",
    "lat": "49.45",
    "lng": "7.45"
  },
  {
    "id": "296",
    "loc_id": "17841",
    "postcode": "27419",
    "city": "Hamersen",
    "lat": "53.25596",
    "lng": "9.48104999999998"
  },
  {
    "id": "297",
    "loc_id": "25951",
    "postcode": "23898",
    "city": "Wentorf (Amt Sandesneben)",
    "lat": "53.68311",
    "lng": "10.46705"
  },
  {
    "id": "298",
    "loc_id": "25669",
    "postcode": "21483",
    "city": "Wangelau",
    "lat": "53.45461",
    "lng": "10.55031"
  },
  {
    "id": "299",
    "loc_id": "21027",
    "postcode": "24576",
    "city": "Mönkloh",
    "lat": "53.8893855875667",
    "lng": "9.78687602336885"
  },
  {
    "id": "300",
    "loc_id": "24834",
    "postcode": "24943",
    "city": "Tastrup bei Flensburg",
    "lat": "54.7650937115",
    "lng": "9.4772163039"
  },
  {
    "id": "301",
    "loc_id": "18081",
    "postcode": "42579",
    "city": "Heiligenhaus bei Velbert",
    "lat": "51.32748147456",
    "lng": "6.96555420104983"
  },
  {
    "id": "302",
    "loc_id": "19807",
    "postcode": "17139",
    "city": "Kummerow bei Malchin",
    "lat": "53.76891",
    "lng": "12.83336"
  },
  {
    "id": "303",
    "loc_id": "142924",
    "postcode": "18196",
    "city": "Dummerstorf Bandelstorf",
    "lat": "54.03723",
    "lng": "12.25153"
  },
  {
    "id": "304",
    "loc_id": "142704",
    "postcode": "14913",
    "city": "Niedergörsdorf Rohrbeck bei Jüterbog",
    "lat": "51.9630722081012",
    "lng": "13.0431054550172"
  },
  {
    "id": "305",
    "loc_id": "16782",
    "postcode": "55288",
    "city": "Gabsheim",
    "lat": "49.8278",
    "lng": "8.17611"
  },
  {
    "id": "306",
    "loc_id": "14563",
    "postcode": "73266",
    "city": "Bissingen an der Teck",
    "lat": "48.6",
    "lng": "9.5"
  },
  {
    "id": "307",
    "loc_id": "22857",
    "postcode": "73098",
    "city": "Rechberghausen",
    "lat": "48.7333",
    "lng": "9.63333"
  },
  {
    "id": "308",
    "loc_id": "24576",
    "postcode": "37345",
    "city": "Steinrode bei Leinefelde",
    "lat": "51.5016701",
    "lng": "10.4922799999999"
  },
  {
    "id": "309",
    "loc_id": "13554",
    "postcode": "48341",
    "city": "Altenberge",
    "lat": "Westfalen",
    "lng": "52.0468975433455"
  },
  {
    "id": "310",
    "loc_id": "19966",
    "postcode": "99986",
    "city": "Langula",
    "lat": "51.1508614349929",
    "lng": "10.4172149841309"
  },
  {
    "id": "311",
    "loc_id": "19771",
    "postcode": "27624",
    "city": "Kührstedt",
    "lat": "53.57786",
    "lng": "8.80115999999998"
  },
  {
    "id": "312",
    "loc_id": "15310",
    "postcode": "06869",
    "city": "Coswig (Anhalt) Cobbelsdorf",
    "lat": "51.9591",
    "lng": "12.53332"
  },
  {
    "id": "313",
    "loc_id": "26215",
    "postcode": "06313",
    "city": "Wimmelburg",
    "lat": "51.52077",
    "lng": "11.5074500000001"
  },
  {
    "id": "314",
    "loc_id": "17427",
    "postcode": "24582",
    "city": "Groß Buchwald",
    "lat": "54.162083522502",
    "lng": "10.08378654862"
  },
  {
    "id": "315",
    "loc_id": "142712",
    "postcode": "14913",
    "city": "Niederer Fläming Borgisdorf",
    "lat": "51.9261",
    "lng": "13.14172"
  },
  {
    "id": "316",
    "loc_id": "25201",
    "postcode": "73066",
    "city": "Uhingen",
    "lat": "48.7048",
    "lng": "9.5857"
  },
  {
    "id": "317",
    "loc_id": "18633",
    "postcode": "35315",
    "city": "Homberg (Ohm)",
    "lat": "50.7333",
    "lng": "9"
  },
  {
    "id": "318",
    "loc_id": "18188",
    "postcode": "64646",
    "city": "Heppenheim (Bergstraße)",
    "lat": "49.6408",
    "lng": "8.63722"
  },
  {
    "id": "319",
    "loc_id": "15049",
    "postcode": "19300",
    "city": "Brunow bei Parchim",
    "lat": "53.26244",
    "lng": "11.81313"
  },
  {
    "id": "320",
    "loc_id": "15049",
    "postcode": "19372",
    "city": "Brunow bei Parchim",
    "lat": "53.26244",
    "lng": "11.81313"
  },
  {
    "id": "321",
    "loc_id": "14130",
    "postcode": "29576",
    "city": "Barum bei Bad Bevensen",
    "lat": "53.05078",
    "lng": "10.51518"
  },
  {
    "id": "322",
    "loc_id": "22608",
    "postcode": "86984",
    "city": "Prem",
    "lat": "Oberbayern",
    "lng": "47.6833"
  },
  {
    "id": "323",
    "loc_id": "17861",
    "postcode": "21502",
    "city": "Hamwarde",
    "lat": "53.45298",
    "lng": "10.42135"
  },
  {
    "id": "324",
    "loc_id": "142887",
    "postcode": "19061",
    "city": "Schwerin",
    "lat": "Mecklenburg Zippendorf",
    "lng": "53.60716"
  },
  {
    "id": "325",
    "loc_id": "142887",
    "postcode": "19063",
    "city": "Schwerin",
    "lat": "Mecklenburg Zippendorf",
    "lng": "53.60716"
  },
  {
    "id": "326",
    "loc_id": "19554",
    "postcode": "39175",
    "city": "Körbelitz",
    "lat": "52.18064",
    "lng": "11.78211"
  },
  {
    "id": "327",
    "loc_id": "25765",
    "postcode": "24999",
    "city": "Wees",
    "lat": "54.807239",
    "lng": "9.522599"
  },
  {
    "id": "328",
    "loc_id": "14735",
    "postcode": "17392",
    "city": "Boldekow",
    "lat": "53.72593",
    "lng": "13.59457"
  },
  {
    "id": "329",
    "loc_id": "85197",
    "postcode": "78112",
    "city": "Sankt Georgen im Schwarzwald Schoren (Schwarzwald)",
    "lat": "48.1238199",
    "lng": "8.3923531"
  },
  {
    "id": "330",
    "loc_id": "24007",
    "postcode": "36318",
    "city": "Schwalmtal",
    "lat": "Hessen",
    "lng": "50.6833"
  },
  {
    "id": "331",
    "loc_id": "22190",
    "postcode": "54317",
    "city": "Osburg",
    "lat": "49.7167",
    "lng": "6.78333"
  },
  {
    "id": "332",
    "loc_id": "143409",
    "postcode": "17255",
    "city": "Wesenberg",
    "lat": "Mecklenburg Strasen",
    "lng": "53.20742"
  },
  {
    "id": "333",
    "loc_id": "22002",
    "postcode": "54570",
    "city": "Oberstadtfeld",
    "lat": "50.1833",
    "lng": "6.76667"
  },
  {
    "id": "334",
    "loc_id": "16889",
    "postcode": "54675",
    "city": "Geichlingen",
    "lat": "49.95",
    "lng": "6.26667"
  },
  {
    "id": "335",
    "loc_id": "26517",
    "postcode": "16792",
    "city": "Zehdenick Zabelsdorf",
    "lat": "53.04847",
    "lng": "13.2517800000001"
  },
  {
    "id": "336",
    "loc_id": "22036",
    "postcode": "08396",
    "city": "Oberwiera",
    "lat": "50.8833",
    "lng": "12.5"
  },
  {
    "id": "337",
    "loc_id": "21123",
    "postcode": "19300",
    "city": "Muchow",
    "lat": "53.31371",
    "lng": "11.68864"
  },
  {
    "id": "338",
    "loc_id": "144266",
    "postcode": "18573",
    "city": "Rambin Drammendorf",
    "lat": "54.3557",
    "lng": "13.21985"
  },
  {
    "id": "339",
    "loc_id": "13802",
    "postcode": "94530",
    "city": "Auerbach",
    "lat": "Niederbayern",
    "lng": "48.8"
  },
  {
    "id": "340",
    "loc_id": "14686",
    "postcode": "57648",
    "city": "Bölsberg",
    "lat": "50.6667",
    "lng": "7.91667"
  },
  {
    "id": "341",
    "loc_id": "25495",
    "postcode": "47669",
    "city": "Wachtendonk",
    "lat": "51.40786",
    "lng": "6.33968000000004"
  },
  {
    "id": "342",
    "loc_id": "21439",
    "postcode": "25724",
    "city": "Neufelderkoog",
    "lat": "53.906748117309",
    "lng": "8.96890994005474"
  },
  {
    "id": "343",
    "loc_id": "117606",
    "postcode": "60326",
    "city": "Frankfurt am Main Griesheim",
    "lat": "50.1",
    "lng": "8.6"
  },
  {
    "id": "344",
    "loc_id": "117606",
    "postcode": "65933",
    "city": "Frankfurt am Main Griesheim",
    "lat": "50.1",
    "lng": "8.6"
  },
  {
    "id": "345",
    "loc_id": "26222",
    "postcode": "24340",
    "city": "Windeby",
    "lat": "54.462724215",
    "lng": "9.81717886329"
  },
  {
    "id": "346",
    "loc_id": "22070",
    "postcode": "09569",
    "city": "Oederan",
    "lat": "50.8667",
    "lng": "13.1667"
  },
  {
    "id": "347",
    "loc_id": "20734",
    "postcode": "29416",
    "city": "Mechau",
    "lat": "52.87071",
    "lng": "11.34863"
  },
  {
    "id": "348",
    "loc_id": "13899",
    "postcode": "54657",
    "city": "Badem",
    "lat": "50",
    "lng": "6.61667"
  },
  {
    "id": "349",
    "loc_id": "144204",
    "postcode": "18586",
    "city": "Lancken-Granitz Gobbin",
    "lat": "54.34545",
    "lng": "13.6218200000001"
  },
  {
    "id": "350",
    "loc_id": "19050",
    "postcode": "36452",
    "city": "Kaltennordheim",
    "lat": "50.6333",
    "lng": "10.1667"
  },
  {
    "id": "351",
    "loc_id": "23421",
    "postcode": "83324",
    "city": "Ruhpolding",
    "lat": "47.7667",
    "lng": "12.65"
  },
  {
    "id": "352",
    "loc_id": "143132",
    "postcode": "18249",
    "city": "Bernitt Neu Bernitt",
    "lat": "53.89964",
    "lng": "11.85223"
  },
  {
    "id": "353",
    "loc_id": "13892",
    "postcode": "04849",
    "city": "Bad Düben",
    "lat": "51.594443525229",
    "lng": "12.5893004074096"
  },
  {
    "id": "354",
    "loc_id": "21855",
    "postcode": "82487",
    "city": "Oberammergau",
    "lat": "47.6",
    "lng": "11.0667"
  },
  {
    "id": "355",
    "loc_id": "22065",
    "postcode": "21775",
    "city": "Odisheim",
    "lat": "53.69439",
    "lng": "8.94117"
  },
  {
    "id": "356",
    "loc_id": "23525",
    "postcode": "25776",
    "city": "Sankt Annen",
    "lat": "Dithmarschen",
    "lng": "54.3500100864308"
  },
  {
    "id": "357",
    "loc_id": "24156",
    "postcode": "24814",
    "city": "Sehestedt",
    "lat": "Eider",
    "lng": "54.36678"
  },
  {
    "id": "358",
    "loc_id": "17627",
    "postcode": "15537",
    "city": "Grünheide (Mark)",
    "lat": "52.4111",
    "lng": "13.8889"
  },
  {
    "id": "359",
    "loc_id": "17627",
    "postcode": "15518",
    "city": "Grünheide (Mark)",
    "lat": "52.4111",
    "lng": "13.8889"
  },
  {
    "id": "360",
    "loc_id": "17627",
    "postcode": "15528",
    "city": "Grünheide (Mark)",
    "lat": "52.4111",
    "lng": "13.8889"
  },
  {
    "id": "361",
    "loc_id": "21753",
    "postcode": "93152",
    "city": "Nittendorf",
    "lat": "49.0253",
    "lng": "11.9611"
  },
  {
    "id": "362",
    "loc_id": "23411",
    "postcode": "67308",
    "city": "Rüssingen",
    "lat": "49.6158",
    "lng": "8.08833"
  },
  {
    "id": "363",
    "loc_id": "22381",
    "postcode": "19209",
    "city": "Perlin",
    "lat": "53.58724",
    "lng": "11.17512"
  },
  {
    "id": "364",
    "loc_id": "19132",
    "postcode": "39638",
    "city": "Kassieck",
    "lat": "52.58666",
    "lng": "11.48508"
  },
  {
    "id": "365",
    "loc_id": "23437",
    "postcode": "55776",
    "city": "Ruschberg",
    "lat": "49.6167",
    "lng": "7.28333"
  },
  {
    "id": "366",
    "loc_id": "22704",
    "postcode": "38368",
    "city": "Querenhorst",
    "lat": "52.33671",
    "lng": "10.9622400000001"
  },
  {
    "id": "367",
    "loc_id": "22641",
    "postcode": "18196",
    "city": "Prisannewitz",
    "lat": "53.98537",
    "lng": "12.22068"
  },
  {
    "id": "368",
    "loc_id": "20924",
    "postcode": "39649",
    "city": "Miesterhorst",
    "lat": "52.46076",
    "lng": "11.14103"
  },
  {
    "id": "369",
    "loc_id": "24751",
    "postcode": "73079",
    "city": "Süßen",
    "lat": "48.6833",
    "lng": "9.76667"
  },
  {
    "id": "370",
    "loc_id": "24887",
    "postcode": "23824",
    "city": "Tensfeld",
    "lat": "54.0412210764855",
    "lng": "10.3180888886929"
  },
  {
    "id": "371",
    "loc_id": "17227",
    "postcode": "09405",
    "city": "Gornau / Erzgebirge",
    "lat": "50.7667",
    "lng": "13.0167"
  },
  {
    "id": "372",
    "loc_id": "15060",
    "postcode": "91088",
    "city": "Bubenreuth",
    "lat": "49.6333",
    "lng": "11.0167"
  },
  {
    "id": "373",
    "loc_id": "24272",
    "postcode": "16845",
    "city": "Sieversdorf-Hohenofen",
    "lat": "52.82585",
    "lng": "12.40418"
  },
  {
    "id": "374",
    "loc_id": "26463",
    "postcode": "06712",
    "city": "Würchwitz",
    "lat": "51.0167",
    "lng": "12.2333"
  },
  {
    "id": "375",
    "loc_id": "26039",
    "postcode": "63825",
    "city": "Westerngrund",
    "lat": "50.1",
    "lng": "9.25"
  },
  {
    "id": "376",
    "loc_id": "143161",
    "postcode": "18273",
    "city": "Güstrow Güstrow",
    "lat": "53.80412",
    "lng": "12.18655"
  },
  {
    "id": "377",
    "loc_id": "152552",
    "postcode": "12435",
    "city": "Berlin Treptow-Köpenick",
    "lat": "52.445817",
    "lng": "13.574588"
  },
  {
    "id": "378",
    "loc_id": "152552",
    "postcode": "12437",
    "city": "Berlin Treptow-Köpenick",
    "lat": "52.445817",
    "lng": "13.574588"
  },
  {
    "id": "379",
    "loc_id": "152552",
    "postcode": "12487",
    "city": "Berlin Treptow-Köpenick",
    "lat": "52.445817",
    "lng": "13.574588"
  },
  {
    "id": "380",
    "loc_id": "152552",
    "postcode": "12439",
    "city": "Berlin Treptow-Köpenick",
    "lat": "52.445817",
    "lng": "13.574588"
  },
  {
    "id": "381",
    "loc_id": "152552",
    "postcode": "12524",
    "city": "Berlin Treptow-Köpenick",
    "lat": "52.445817",
    "lng": "13.574588"
  },
  {
    "id": "382",
    "loc_id": "152552",
    "postcode": "12526",
    "city": "Berlin Treptow-Köpenick",
    "lat": "52.445817",
    "lng": "13.574588"
  },
  {
    "id": "383",
    "loc_id": "152552",
    "postcode": "12527",
    "city": "Berlin Treptow-Köpenick",
    "lat": "52.445817",
    "lng": "13.574588"
  },
  {
    "id": "384",
    "loc_id": "152552",
    "postcode": "12489",
    "city": "Berlin Treptow-Köpenick",
    "lat": "52.445817",
    "lng": "13.574588"
  },
  {
    "id": "385",
    "loc_id": "152552",
    "postcode": "12459",
    "city": "Berlin Treptow-Köpenick",
    "lat": "52.445817",
    "lng": "13.574588"
  },
  {
    "id": "386",
    "loc_id": "152552",
    "postcode": "12555",
    "city": "Berlin Treptow-Köpenick",
    "lat": "52.445817",
    "lng": "13.574588"
  },
  {
    "id": "387",
    "loc_id": "152552",
    "postcode": "12557",
    "city": "Berlin Treptow-Köpenick",
    "lat": "52.445817",
    "lng": "13.574588"
  },
  {
    "id": "388",
    "loc_id": "152552",
    "postcode": "12559",
    "city": "Berlin Treptow-Köpenick",
    "lat": "52.445817",
    "lng": "13.574588"
  },
  {
    "id": "389",
    "loc_id": "152552",
    "postcode": "12587",
    "city": "Berlin Treptow-Köpenick",
    "lat": "52.445817",
    "lng": "13.574588"
  },
  {
    "id": "390",
    "loc_id": "152552",
    "postcode": "12589",
    "city": "Berlin Treptow-Köpenick",
    "lat": "52.445817",
    "lng": "13.574588"
  },
  {
    "id": "391",
    "loc_id": "23398",
    "postcode": "65385",
    "city": "Rüdesheim am Rhein",
    "lat": "49.9833",
    "lng": "7.91667"
  },
  {
    "id": "392",
    "loc_id": "17110",
    "postcode": "39249",
    "city": "Gnadau",
    "lat": "51.97592",
    "lng": "11.78002"
  },
  {
    "id": "393",
    "loc_id": "143493",
    "postcode": "17209",
    "city": "Sietow Sietow",
    "lat": "53.4449393888079",
    "lng": "12.5571239471435"
  },
  {
    "id": "394",
    "loc_id": "142252",
    "postcode": "16818",
    "city": "Temnitzquell Netzeband bei Neuruppin",
    "lat": "52.99633",
    "lng": "12.63264"
  },
  {
    "id": "395",
    "loc_id": "19591",
    "postcode": "66879",
    "city": "Kollweiler",
    "lat": "49.5167",
    "lng": "7.58333"
  },
  {
    "id": "396",
    "loc_id": "127049",
    "postcode": "83329",
    "city": "Wonneberg Enzersdorf bei Waging am See",
    "lat": "47.9087",
    "lng": "12.7362"
  },
  {
    "id": "397",
    "loc_id": "21151",
    "postcode": "08626",
    "city": "Mühlental",
    "lat": "50.4519",
    "lng": "12.4815"
  },
  {
    "id": "398",
    "loc_id": "21151",
    "postcode": "08606",
    "city": "Mühlental",
    "lat": "50.4519",
    "lng": "12.4815"
  },
  {
    "id": "399",
    "loc_id": "24668",
    "postcode": "72479",
    "city": "Straßberg (Hohenzollern)",
    "lat": "48.1761",
    "lng": "9.0904"
  },
  {
    "id": "400",
    "loc_id": "20635",
    "postcode": "71706",
    "city": "Markgröningen",
    "lat": "48.9",
    "lng": "9.06667"
  },
  {
    "id": "401",
    "loc_id": "16934",
    "postcode": "55457",
    "city": "Gensingen",
    "lat": "49.9",
    "lng": "7.93333"
  },
  {
    "id": "402",
    "loc_id": "15095",
    "postcode": "53567",
    "city": "Buchholz (Westerwald)",
    "lat": "50.6833",
    "lng": "7.38333"
  },
  {
    "id": "403",
    "loc_id": "22647",
    "postcode": "16928",
    "city": "Pritzwalk",
    "lat": "53.15046",
    "lng": "12.17707"
  },
  {
    "id": "404",
    "loc_id": "19589",
    "postcode": "94262",
    "city": "Kollnburg",
    "lat": "49.05",
    "lng": "12.8667"
  },
  {
    "id": "405",
    "loc_id": "25522",
    "postcode": "37194",
    "city": "Wahlsburg",
    "lat": "Weser",
    "lng": "51.62329"
  },
  {
    "id": "406",
    "loc_id": "16141",
    "postcode": "25335",
    "city": "Elmshorn",
    "lat": "53.7552973008561",
    "lng": "9.65623957259651"
  },
  {
    "id": "407",
    "loc_id": "16141",
    "postcode": "25336",
    "city": "Elmshorn",
    "lat": "53.7552973008561",
    "lng": "9.65623957259651"
  },
  {
    "id": "408",
    "loc_id": "16141",
    "postcode": "25337",
    "city": "Elmshorn",
    "lat": "53.7552973008561",
    "lng": "9.65623957259651"
  },
  {
    "id": "409",
    "loc_id": "16385",
    "postcode": "97502",
    "city": "Euerbach",
    "lat": "50.0667",
    "lng": "10.1333"
  },
  {
    "id": "410",
    "loc_id": "22162",
    "postcode": "54456",
    "city": "Onsdorf",
    "lat": "49.65",
    "lng": "6.48333"
  },
  {
    "id": "411",
    "loc_id": "25095",
    "postcode": "84371",
    "city": "Triftern",
    "lat": "48.4",
    "lng": "13.0167"
  },
  {
    "id": "412",
    "loc_id": "117629",
    "postcode": "65205",
    "city": "Wiesbaden Erbenheim",
    "lat": "50.0833",
    "lng": "8.25"
  },
  {
    "id": "413",
    "loc_id": "151788",
    "postcode": "08352",
    "city": "Raschau-Markersbach",
    "lat": "50.532222",
    "lng": "12.871389"
  },
  {
    "id": "414",
    "loc_id": "16338",
    "postcode": "59889",
    "city": "Eslohe (Sauerland)",
    "lat": "51.25405",
    "lng": "8.17076999999995"
  },
  {
    "id": "415",
    "loc_id": "16747",
    "postcode": "84160",
    "city": "Frontenhausen",
    "lat": "48.544375",
    "lng": "12.528772"
  },
  {
    "id": "416",
    "loc_id": "25797",
    "postcode": "89197",
    "city": "Weidenstetten",
    "lat": "48.55",
    "lng": "10"
  },
  {
    "id": "417",
    "loc_id": "17644",
    "postcode": "03172",
    "city": "Guben",
    "lat": "51.95079",
    "lng": "14.70258"
  },
  {
    "id": "418",
    "loc_id": "24345",
    "postcode": "29614",
    "city": "Soltau",
    "lat": "52.98414",
    "lng": "9.84249"
  },
  {
    "id": "419",
    "loc_id": "20061",
    "postcode": "16767",
    "city": "Leegebruch",
    "lat": "52.72349",
    "lng": "13.1947700000001"
  },
  {
    "id": "420",
    "loc_id": "142351",
    "postcode": "14797",
    "city": "Kloster Lehnin Netzen",
    "lat": "52.3423",
    "lng": "12.68296"
  },
  {
    "id": "421",
    "loc_id": "121037",
    "postcode": "54293",
    "city": "Trier Ehrang",
    "lat": "49.75",
    "lng": "6.63333"
  },
  {
    "id": "422",
    "loc_id": "26592",
    "postcode": "15236",
    "city": "Zeschdorf",
    "lat": "52.4213",
    "lng": "14.3875"
  },
  {
    "id": "423",
    "loc_id": "26592",
    "postcode": "15326",
    "city": "Zeschdorf",
    "lat": "52.4213",
    "lng": "14.3875"
  },
  {
    "id": "424",
    "loc_id": "143460",
    "postcode": "17192",
    "city": "Groß Dratow Klein Dratow",
    "lat": "53.5056752356192",
    "lng": "12.8741554077149"
  },
  {
    "id": "425",
    "loc_id": "14176",
    "postcode": "55234",
    "city": "Bechenheim",
    "lat": "49.7286",
    "lng": "8.00333"
  },
  {
    "id": "426",
    "loc_id": "25246",
    "postcode": "67746",
    "city": "Unterjeckenbach",
    "lat": "49.6667",
    "lng": "7.48333"
  },
  {
    "id": "427",
    "loc_id": "20675",
    "postcode": "25709",
    "city": "Marne",
    "lat": "Holstein",
    "lng": "53.9511274906169"
  },
  {
    "id": "428",
    "loc_id": "142526",
    "postcode": "19348",
    "city": "Perleberg Quitzow",
    "lat": "53.10143",
    "lng": "11.81946"
  },
  {
    "id": "429",
    "loc_id": "22465",
    "postcode": "91361",
    "city": "Pinzberg",
    "lat": "49.7",
    "lng": "11.1"
  },
  {
    "id": "430",
    "loc_id": "23596",
    "postcode": "37318",
    "city": "Schachtebich",
    "lat": "51.40125",
    "lng": "10.05057"
  },
  {
    "id": "431",
    "loc_id": "24876",
    "postcode": "14513",
    "city": "Teltow",
    "lat": "52.39584",
    "lng": "13.27631"
  },
  {
    "id": "432",
    "loc_id": "116664",
    "postcode": "58452",
    "city": "Witten Herbede",
    "lat": "51.4181009105116",
    "lng": "7.28084453399651"
  },
  {
    "id": "433",
    "loc_id": "116664",
    "postcode": "58456",
    "city": "Witten Herbede",
    "lat": "51.4181009105116",
    "lng": "7.28084453399651"
  },
  {
    "id": "434",
    "loc_id": "20326",
    "postcode": "07751",
    "city": "Löberschütz",
    "lat": "50.9667",
    "lng": "11.7"
  },
  {
    "id": "435",
    "loc_id": "26295",
    "postcode": "24217",
    "city": "Wisch bei Kiel",
    "lat": "54.4089926501879",
    "lng": "10.3452036738397"
  },
  {
    "id": "436",
    "loc_id": "20354",
    "postcode": "74245",
    "city": "Löwenstein (Württemberg)",
    "lat": "49.0994",
    "lng": "9.38139"
  },
  {
    "id": "437",
    "loc_id": "18882",
    "postcode": "99947",
    "city": "Issersheilingen",
    "lat": "51.2",
    "lng": "10.65"
  },
  {
    "id": "438",
    "loc_id": "19677",
    "postcode": "06712",
    "city": "Kretzschau",
    "lat": "51.05",
    "lng": "12.0667"
  },
  {
    "id": "439",
    "loc_id": "24582",
    "postcode": "66879",
    "city": "Steinwenden",
    "lat": "49.45",
    "lng": "7.53333"
  },
  {
    "id": "440",
    "loc_id": "144373",
    "postcode": "09619",
    "city": "Dorfchemnitz bei Sayda Wolfsgrund",
    "lat": "50.7742994449119",
    "lng": "13.4158393859864"
  },
  {
    "id": "441",
    "loc_id": "18238",
    "postcode": "67742",
    "city": "Herren-Sulzbach",
    "lat": "49.65",
    "lng": "7.53333"
  },
  {
    "id": "442",
    "loc_id": "15677",
    "postcode": "04720",
    "city": "Döbeln",
    "lat": "51.1167",
    "lng": "13.1167"
  },
  {
    "id": "443",
    "loc_id": "15102",
    "postcode": "55469",
    "city": "Budenbach",
    "lat": "50.0333",
    "lng": "7.56667"
  },
  {
    "id": "444",
    "loc_id": "19703",
    "postcode": "21529",
    "city": "Kröppelshagen-Fahrendorf",
    "lat": "53.48588",
    "lng": "10.3156"
  },
  {
    "id": "445",
    "loc_id": "25149",
    "postcode": "82327",
    "city": "Tutzing",
    "lat": "47.9167",
    "lng": "11.2833"
  },
  {
    "id": "446",
    "loc_id": "24676",
    "postcode": "98646",
    "city": "Straufhain",
    "lat": "50.3583",
    "lng": "10.7042"
  },
  {
    "id": "447",
    "loc_id": "21148",
    "postcode": "19205",
    "city": "Mühlen Eichsen",
    "lat": "53.75891",
    "lng": "11.25135"
  },
  {
    "id": "448",
    "loc_id": "24429",
    "postcode": "99610",
    "city": "Sprötau",
    "lat": "51.1167",
    "lng": "11.2"
  },
  {
    "id": "449",
    "loc_id": "24459",
    "postcode": "89195",
    "city": "Staig (Weihung)",
    "lat": "48.3",
    "lng": "9.98333"
  },
  {
    "id": "450",
    "loc_id": "23195",
    "postcode": "06317",
    "city": "Röblingen am See",
    "lat": "51.4610977134863",
    "lng": "11.6697469894409"
  },
  {
    "id": "451",
    "loc_id": "22633",
    "postcode": "96170",
    "city": "Priesendorf",
    "lat": "49.9",
    "lng": "10.7167"
  },
  {
    "id": "452",
    "loc_id": "19580",
    "postcode": "83059",
    "city": "Kolbermoor",
    "lat": "47.85",
    "lng": "12.0667"
  },
  {
    "id": "453",
    "loc_id": "23040",
    "postcode": "79276",
    "city": "Reute (Breisgau)",
    "lat": "48.0833",
    "lng": "7.81667"
  },
  {
    "id": "454",
    "loc_id": "22013",
    "postcode": "74182",
    "city": "Obersulm",
    "lat": "49.133",
    "lng": "9.383"
  },
  {
    "id": "455",
    "loc_id": "20230",
    "postcode": "56858",
    "city": "Liesenich",
    "lat": "50.0833",
    "lng": "7.28333"
  },
  {
    "id": "456",
    "loc_id": "22572",
    "postcode": "25836",
    "city": "Poppenbüll",
    "lat": "54.36090446984",
    "lng": "8.76124655051221"
  },
  {
    "id": "457",
    "loc_id": "18036",
    "postcode": "25355",
    "city": "Heede bei Barmstedt",
    "lat": "53.783780787891",
    "lng": "9.80737869782444"
  },
  {
    "id": "458",
    "loc_id": "21021",
    "postcode": "91614",
    "city": "Mönchsroth",
    "lat": "49.0167",
    "lng": "10.3667"
  },
  {
    "id": "459",
    "loc_id": "13855",
    "postcode": "55422",
    "city": "Bacharach",
    "lat": "50.0667",
    "lng": "7.76667"
  },
  {
    "id": "460",
    "loc_id": "20397",
    "postcode": "54317",
    "city": "Lorscheid bei Trier",
    "lat": "49.7333",
    "lng": "6.85"
  },
  {
    "id": "461",
    "loc_id": "25848",
    "postcode": "07806",
    "city": "Weira",
    "lat": "50.7",
    "lng": "11.7167"
  },
  {
    "id": "462",
    "loc_id": "143319",
    "postcode": "19294",
    "city": "Neu Kaliß Heiddorf",
    "lat": "53.18591",
    "lng": "11.29675"
  },
  {
    "id": "463",
    "loc_id": "15564",
    "postcode": "57520",
    "city": "Dickendorf",
    "lat": "50.7333",
    "lng": "7.85"
  },
  {
    "id": "464",
    "loc_id": "143990",
    "postcode": "17406",
    "city": "Rankwitz Quilitz",
    "lat": "53.95668",
    "lng": "13.91926"
  },
  {
    "id": "465",
    "loc_id": "15050",
    "postcode": "22946",
    "city": "Brunsbek",
    "lat": "53.59509",
    "lng": "10.26694"
  },
  {
    "id": "466",
    "loc_id": "19626",
    "postcode": "14715",
    "city": "Kotzen",
    "lat": "52.63996",
    "lng": "12.51552"
  },
  {
    "id": "467",
    "loc_id": "19017",
    "postcode": "25560",
    "city": "Kaisborstel",
    "lat": "54.013794",
    "lng": "9.481068"
  },
  {
    "id": "468",
    "loc_id": "25254",
    "postcode": "86836",
    "city": "Untermeitingen",
    "lat": "48.1667",
    "lng": "10.8"
  },
  {
    "id": "469",
    "loc_id": "13526",
    "postcode": "54668",
    "city": "Alsdorf",
    "lat": "Eifel",
    "lng": "49.8833"
  },
  {
    "id": "470",
    "loc_id": "22618",
    "postcode": "06922",
    "city": "Prettin",
    "lat": "51.66362",
    "lng": "12.9254"
  },
  {
    "id": "471",
    "loc_id": "20798",
    "postcode": "16230",
    "city": "Melchow",
    "lat": "52.77591",
    "lng": "13.70492"
  },
  {
    "id": "472",
    "loc_id": "17795",
    "postcode": "06528",
    "city": "Hainrode bei Sangerhausen",
    "lat": "51.5004541600458",
    "lng": "11.1686311904907"
  },
  {
    "id": "473",
    "loc_id": "20074",
    "postcode": "07778",
    "city": "Lehesten bei Jena",
    "lat": "50.9833",
    "lng": "11.5833"
  },
  {
    "id": "474",
    "loc_id": "22905",
    "postcode": "99759",
    "city": "Rehungen",
    "lat": "51.3820143603973",
    "lng": "10.5235664550783"
  },
  {
    "id": "475",
    "loc_id": "22243",
    "postcode": "25746",
    "city": "Ostrohe",
    "lat": "54.214810444152",
    "lng": "9.137088806873"
  },
  {
    "id": "476",
    "loc_id": "13917",
    "postcode": "37581",
    "city": "Bad Gandersheim",
    "lat": "51.870662",
    "lng": "10.024588"
  },
  {
    "id": "477",
    "loc_id": "22529",
    "postcode": "18059",
    "city": "Pölchow",
    "lat": "54.01024",
    "lng": "12.09624"
  },
  {
    "id": "478",
    "loc_id": "25032",
    "postcode": "39249",
    "city": "Tornitz bei Schönebeck",
    "lat": "51.9303301",
    "lng": "11.84795"
  },
  {
    "id": "479",
    "loc_id": "21106",
    "postcode": "34326",
    "city": "Morschen",
    "lat": "51.05",
    "lng": "9.6"
  },
  {
    "id": "480",
    "loc_id": "17307",
    "postcode": "16775",
    "city": "Gransee",
    "lat": "53.00562",
    "lng": "13.15121"
  },
  {
    "id": "481",
    "loc_id": "24241",
    "postcode": "21514",
    "city": "Siebeneichen",
    "lat": "Kreis Herzogtum Lauenburg",
    "lng": "53.51139"
  },
  {
    "id": "482",
    "loc_id": "15133",
    "postcode": "32257",
    "city": "Bünde",
    "lat": "52.19851",
    "lng": "8.58329000000003"
  },
  {
    "id": "483",
    "loc_id": "14601",
    "postcode": "21640",
    "city": "Bliedersdorf",
    "lat": "53.48135",
    "lng": "9.56988"
  },
  {
    "id": "484",
    "loc_id": "20421",
    "postcode": "36251",
    "city": "Ludwigsau",
    "lat": "Hessen",
    "lng": "50.9"
  },
  {
    "id": "485",
    "loc_id": "24045",
    "postcode": "92521",
    "city": "Schwarzenfeld",
    "lat": "Oberpfalz",
    "lng": "49.3894"
  },
  {
    "id": "486",
    "loc_id": "27607",
    "postcode": "15306",
    "city": "Vierlinden",
    "lat": "52.5150783488059",
    "lng": "14.3140141693116"
  },
  {
    "id": "487",
    "loc_id": "19802",
    "postcode": "95326",
    "city": "Kulmbach",
    "lat": "50.1",
    "lng": "11.45"
  },
  {
    "id": "488",
    "loc_id": "19952",
    "postcode": "86853",
    "city": "Langerringen",
    "lat": "48.15",
    "lng": "10.7667"
  },
  {
    "id": "489",
    "loc_id": "21366",
    "postcode": "83115",
    "city": "Neubeuern",
    "lat": "47.7667",
    "lng": "12.15"
  },
  {
    "id": "490",
    "loc_id": "24121",
    "postcode": "82229",
    "city": "Seefeld",
    "lat": "Oberbayern",
    "lng": "48.0333"
  },
  {
    "id": "491",
    "loc_id": "142153",
    "postcode": "16775",
    "city": "Stechlin Neuglobsow",
    "lat": "53.14365",
    "lng": "13.04795"
  },
  {
    "id": "492",
    "loc_id": "20578",
    "postcode": "69254",
    "city": "Malsch bei Wiesloch",
    "lat": "49.2472",
    "lng": "8.68278"
  },
  {
    "id": "493",
    "loc_id": "15004",
    "postcode": "59969",
    "city": "Bromskirchen",
    "lat": "51.0833",
    "lng": "8.61667"
  },
  {
    "id": "494",
    "loc_id": "14842",
    "postcode": "26919",
    "city": "Brake (Unterweser)",
    "lat": "53.32658",
    "lng": "8.47806000000003"
  },
  {
    "id": "495",
    "loc_id": "15739",
    "postcode": "56290",
    "city": "Dommershausen",
    "lat": "50.15",
    "lng": "7.4"
  },
  {
    "id": "496",
    "loc_id": "21374",
    "postcode": "75387",
    "city": "Neubulach",
    "lat": "48.65",
    "lng": "8.7"
  },
  {
    "id": "497",
    "loc_id": "20859",
    "postcode": "79249",
    "city": "Merzhausen (Breisgau)",
    "lat": "47.9667",
    "lng": "7.83333"
  },
  {
    "id": "498",
    "loc_id": "24935",
    "postcode": "66871",
    "city": "Theisbergstegen",
    "lat": "49.5167",
    "lng": "7.45"
  },
  {
    "id": "499",
    "loc_id": "16733",
    "postcode": "26169",
    "city": "Friesoythe",
    "lat": "53.02458",
    "lng": "7.85832000000005"
  },
  {
    "id": "500",
    "loc_id": "20224",
    "postcode": "16248",
    "city": "Liepe bei Eberswalde",
    "lat": "52.86227",
    "lng": "13.96986"
  },
  {
    "id": "501",
    "loc_id": "143553",
    "postcode": "18519",
    "city": "Horst bei Grimmen Segebadenhau",
    "lat": "54.14129",
    "lng": "13.19523"
  },
  {
    "id": "502",
    "loc_id": "15036",
    "postcode": "50321",
    "city": "Brühl",
    "lat": "Rheinland",
    "lng": "50.8333"
  },
  {
    "id": "503",
    "loc_id": "24375",
    "postcode": "08326",
    "city": "Sosa",
    "lat": "50.5",
    "lng": "12.6667"
  },
  {
    "id": "504",
    "loc_id": "25903",
    "postcode": "86465",
    "city": "Welden bei Augsburg",
    "lat": "48.45",
    "lng": "10.6667"
  },
  {
    "id": "505",
    "loc_id": "143592",
    "postcode": "18519",
    "city": "Reinberg bei Grimmen Stahlbrode",
    "lat": "54.23386",
    "lng": "13.28514"
  },
  {
    "id": "506",
    "loc_id": "121063",
    "postcode": "54470",
    "city": "Brauneberg Hirzlei",
    "lat": "49.9167",
    "lng": "6.98333"
  },
  {
    "id": "507",
    "loc_id": "24942",
    "postcode": "18528",
    "city": "Thesenvitz",
    "lat": "54.4501",
    "lng": "13.38948"
  },
  {
    "id": "508",
    "loc_id": "24952",
    "postcode": "56291",
    "city": "Thörlingen",
    "lat": "50.1333",
    "lng": "7.53333"
  },
  {
    "id": "509",
    "loc_id": "24510",
    "postcode": "24235",
    "city": "Stein bei Laboe",
    "lat": "54.4147079747742",
    "lng": "10.2691422611476"
  },
  {
    "id": "510",
    "loc_id": "21108",
    "postcode": "56283",
    "city": "Morshausen",
    "lat": "50.2",
    "lng": "7.43333"
  },
  {
    "id": "511",
    "loc_id": "22733",
    "postcode": "31604",
    "city": "Raddestorf",
    "lat": "52.4552",
    "lng": "8.96346"
  },
  {
    "id": "512",
    "loc_id": "15488",
    "postcode": "86489",
    "city": "Deisenhausen",
    "lat": "48.25",
    "lng": "10.3333"
  },
  {
    "id": "513",
    "loc_id": "20446",
    "postcode": "23898",
    "city": "Lüchow bei Sandesneben",
    "lat": "53.6908",
    "lng": "10.52954"
  },
  {
    "id": "514",
    "loc_id": "15920",
    "postcode": "96237",
    "city": "Ebersdorf bei Coburg",
    "lat": "50.23",
    "lng": "11.08"
  },
  {
    "id": "515",
    "loc_id": "23819",
    "postcode": "67699",
    "city": "Schneckenhausen",
    "lat": "49.5333",
    "lng": "7.75"
  },
  {
    "id": "516",
    "loc_id": "14777",
    "postcode": "46325",
    "city": "Borken",
    "lat": "Westfalen",
    "lng": "51.848372553829"
  },
  {
    "id": "517",
    "loc_id": "142511",
    "postcode": "19336",
    "city": "Legde / Quitzöbel Quitzöbel",
    "lat": "52.8913",
    "lng": "11.9831"
  },
  {
    "id": "518",
    "loc_id": "15636",
    "postcode": "84130",
    "city": "Dingolfing",
    "lat": "48.6333",
    "lng": "12.5"
  },
  {
    "id": "519",
    "loc_id": "17582",
    "postcode": "02708",
    "city": "Großschweidnitz",
    "lat": "51.07387",
    "lng": "14.6481699999999"
  },
  {
    "id": "520",
    "loc_id": "19183",
    "postcode": "55606",
    "city": "Kellenbach",
    "lat": "49.85",
    "lng": "7.48333"
  },
  {
    "id": "521",
    "loc_id": "17301",
    "postcode": "17291",
    "city": "Gramzow",
    "lat": "Uckermark",
    "lng": "53.2108"
  },
  {
    "id": "522",
    "loc_id": "24630",
    "postcode": "25548",
    "city": "Störkathen",
    "lat": "53.980347",
    "lng": "9.756469"
  },
  {
    "id": "523",
    "loc_id": "144940",
    "postcode": "07356",
    "city": "Bad Lobenstein Oberlemnitz",
    "lat": "50.45",
    "lng": "11.65"
  },
  {
    "id": "524",
    "loc_id": "14217",
    "postcode": "17179",
    "city": "Behren-Lübchin",
    "lat": "54.02929",
    "lng": "12.6650500000001"
  },
  {
    "id": "525",
    "loc_id": "142837",
    "postcode": "16303",
    "city": "Schwedt / Oder Kummerow bei Angermünde",
    "lat": "53.14884",
    "lng": "14.21521"
  },
  {
    "id": "526",
    "loc_id": "142837",
    "postcode": "16306",
    "city": "Schwedt / Oder Kummerow bei Angermünde",
    "lat": "53.14884",
    "lng": "14.21521"
  },
  {
    "id": "527",
    "loc_id": "24985",
    "postcode": "67311",
    "city": "Tiefenthal",
    "lat": "Pfalz",
    "lng": "49.5386"
  },
  {
    "id": "528",
    "loc_id": "22559",
    "postcode": "31718",
    "city": "Pollhagen",
    "lat": "52.3766",
    "lng": "9.18808"
  },
  {
    "id": "529",
    "loc_id": "21848",
    "postcode": "69226",
    "city": "Nußloch",
    "lat": "49.3239",
    "lng": "8.69556"
  },
  {
    "id": "530",
    "loc_id": "144259",
    "postcode": "18556",
    "city": "Putgarten Vitt",
    "lat": "54.66594",
    "lng": "13.43179"
  },
  {
    "id": "531",
    "loc_id": "144122",
    "postcode": "19089",
    "city": "Wessin Radepohl",
    "lat": "53.5676",
    "lng": "11.7538500000001"
  },
  {
    "id": "532",
    "loc_id": "14108",
    "postcode": "24245",
    "city": "Barmissen",
    "lat": "54.2050398276889",
    "lng": "10.1753696967095"
  },
  {
    "id": "533",
    "loc_id": "25998",
    "postcode": "99735",
    "city": "Werther bei Nordhausen",
    "lat": "51.46823",
    "lng": "10.74558"
  },
  {
    "id": "534",
    "loc_id": "13975",
    "postcode": "96476",
    "city": "Bad Rodach",
    "lat": "50.3333",
    "lng": "10.7833"
  },
  {
    "id": "535",
    "loc_id": "106018",
    "postcode": "24943",
    "city": "Flensburg Engelsby",
    "lat": "54.79312",
    "lng": "9.47732"
  },
  {
    "id": "536",
    "loc_id": "106018",
    "postcode": "24943",
    "city": "Flensborg Engelsby",
    "lat": "54.79312",
    "lng": "9.47732"
  },
  {
    "id": "537",
    "loc_id": "25195",
    "postcode": "31311",
    "city": "Uetze",
    "lat": "52.4645902029321",
    "lng": "10.2031554232788"
  },
  {
    "id": "538",
    "loc_id": "15683",
    "postcode": "99441",
    "city": "Döbritschen bei Weimar",
    "lat": "Thüringen",
    "lng": "50.9167"
  },
  {
    "id": "539",
    "loc_id": "17164",
    "postcode": "79733",
    "city": "Görwihl",
    "lat": "47.65",
    "lng": "8.08333"
  },
  {
    "id": "540",
    "loc_id": "17977",
    "postcode": "76846",
    "city": "Hauenstein",
    "lat": "Pfalz",
    "lng": "49.1833"
  },
  {
    "id": "541",
    "loc_id": "21985",
    "postcode": "54533",
    "city": "Oberscheidweiler",
    "lat": "50.0833",
    "lng": "6.93333"
  },
  {
    "id": "542",
    "loc_id": "20949",
    "postcode": "93098",
    "city": "Mintraching",
    "lat": "Kreis Regensburg",
    "lng": "48.95"
  },
  {
    "id": "543",
    "loc_id": "16810",
    "postcode": "91605",
    "city": "Gallmersgarten",
    "lat": "49.45",
    "lng": "10.2667"
  },
  {
    "id": "544",
    "loc_id": "20007",
    "postcode": "21481",
    "city": "Lauenburg / Elbe",
    "lat": "53.37582",
    "lng": "10.54703"
  },
  {
    "id": "545",
    "loc_id": "19376",
    "postcode": "99735",
    "city": "Kleinfurra",
    "lat": "51.4139774119926",
    "lng": "10.761287116394"
  },
  {
    "id": "546",
    "loc_id": "143356",
    "postcode": "19243",
    "city": "Wittenburg",
    "lat": "Mecklenburg Helm bei Hagenow",
    "lng": "53.46441"
  },
  {
    "id": "547",
    "loc_id": "143698",
    "postcode": "19217",
    "city": "Carlow Klocksdorf",
    "lat": "53.74019",
    "lng": "10.9301"
  },
  {
    "id": "548",
    "loc_id": "20179",
    "postcode": "17498",
    "city": "Levenhagen",
    "lat": "54.0885",
    "lng": "13.27098"
  },
  {
    "id": "549",
    "loc_id": "22494",
    "postcode": "91785",
    "city": "Pleinfeld",
    "lat": "49.1",
    "lng": "10.9833"
  },
  {
    "id": "550",
    "loc_id": "22789",
    "postcode": "66877",
    "city": "Ramstein-Miesenbach",
    "lat": "49.45",
    "lng": "7.55"
  },
  {
    "id": "551",
    "loc_id": "14671",
    "postcode": "87736",
    "city": "Böhen",
    "lat": "Unterallgäu",
    "lng": "47.8833"
  },
  {
    "id": "552",
    "loc_id": "25946",
    "postcode": "25767",
    "city": "Wennbüttel",
    "lat": "54.138877232781",
    "lng": "9.32349696899013"
  },
  {
    "id": "553",
    "loc_id": "18943",
    "postcode": "38381",
    "city": "Jerxheim",
    "lat": "52.0835109765412",
    "lng": "10.9001502037048"
  },
  {
    "id": "554",
    "loc_id": "144112",
    "postcode": "19376",
    "city": "Tessenow Poitendorf",
    "lat": "53.34351",
    "lng": "11.86181"
  },
  {
    "id": "555",
    "loc_id": "17340",
    "postcode": "18461",
    "city": "Gremersdorf-Buchholz",
    "lat": "54.14787",
    "lng": "12.8957399999999"
  },
  {
    "id": "556",
    "loc_id": "16689",
    "postcode": "06347",
    "city": "Friedeburgerhütte",
    "lat": "51.62426",
    "lng": "11.68672"
  },
  {
    "id": "557",
    "loc_id": "14311",
    "postcode": "29303",
    "city": "Bergen (Kreis Celle)",
    "lat": "52.80974",
    "lng": "9.96279000000004"
  },
  {
    "id": "558",
    "loc_id": "152673",
    "postcode": "10243",
    "city": "Berlin Friedrichshain-Kreuzberg",
    "lat": "52.5015",
    "lng": "13.43512"
  },
  {
    "id": "559",
    "loc_id": "152673",
    "postcode": "10245",
    "city": "Berlin Friedrichshain-Kreuzberg",
    "lat": "52.5015",
    "lng": "13.43512"
  },
  {
    "id": "560",
    "loc_id": "152673",
    "postcode": "10247",
    "city": "Berlin Friedrichshain-Kreuzberg",
    "lat": "52.5015",
    "lng": "13.43512"
  },
  {
    "id": "561",
    "loc_id": "152673",
    "postcode": "10249",
    "city": "Berlin Friedrichshain-Kreuzberg",
    "lat": "52.5015",
    "lng": "13.43512"
  },
  {
    "id": "562",
    "loc_id": "152673",
    "postcode": "10961",
    "city": "Berlin Friedrichshain-Kreuzberg",
    "lat": "52.5015",
    "lng": "13.43512"
  },
  {
    "id": "563",
    "loc_id": "152673",
    "postcode": "10963",
    "city": "Berlin Friedrichshain-Kreuzberg",
    "lat": "52.5015",
    "lng": "13.43512"
  },
  {
    "id": "564",
    "loc_id": "152673",
    "postcode": "10965",
    "city": "Berlin Friedrichshain-Kreuzberg",
    "lat": "52.5015",
    "lng": "13.43512"
  },
  {
    "id": "565",
    "loc_id": "152673",
    "postcode": "10967",
    "city": "Berlin Friedrichshain-Kreuzberg",
    "lat": "52.5015",
    "lng": "13.43512"
  },
  {
    "id": "566",
    "loc_id": "152673",
    "postcode": "10969",
    "city": "Berlin Friedrichshain-Kreuzberg",
    "lat": "52.5015",
    "lng": "13.43512"
  },
  {
    "id": "567",
    "loc_id": "152673",
    "postcode": "10997",
    "city": "Berlin Friedrichshain-Kreuzberg",
    "lat": "52.5015",
    "lng": "13.43512"
  },
  {
    "id": "568",
    "loc_id": "152673",
    "postcode": "10999",
    "city": "Berlin Friedrichshain-Kreuzberg",
    "lat": "52.5015",
    "lng": "13.43512"
  },
  {
    "id": "569",
    "loc_id": "19726",
    "postcode": "06193",
    "city": "Krosigk",
    "lat": "51.60959",
    "lng": "11.93359"
  },
  {
    "id": "570",
    "loc_id": "18138",
    "postcode": "57612",
    "city": "Helmenzen",
    "lat": "50.7",
    "lng": "7.61667"
  },
  {
    "id": "571",
    "loc_id": "25307",
    "postcode": "26556",
    "city": "Utarp",
    "lat": "Harlingerland",
    "lng": "53.60782"
  },
  {
    "id": "572",
    "loc_id": "143397",
    "postcode": "17039",
    "city": "Neuenkirchen bei Neubrandenburg Ihlenfeld",
    "lat": "53.59008",
    "lng": "13.33683"
  },
  {
    "id": "573",
    "loc_id": "20733",
    "postcode": "53508",
    "city": "Mayschoß",
    "lat": "50.5333",
    "lng": "7.01667"
  },
  {
    "id": "574",
    "loc_id": "14424",
    "postcode": "57518",
    "city": "Betzdorf",
    "lat": "Sieg",
    "lng": "50.7833"
  },
  {
    "id": "575",
    "loc_id": "18194",
    "postcode": "35745",
    "city": "Herborn",
    "lat": "Hessen",
    "lng": "50.6833"
  },
  {
    "id": "576",
    "loc_id": "14673",
    "postcode": "98701",
    "city": "Böhlen",
    "lat": "Thüringen",
    "lng": "50.6"
  },
  {
    "id": "577",
    "loc_id": "13839",
    "postcode": "27729",
    "city": "Axstedt",
    "lat": "53.3539",
    "lng": "8.77238999999997"
  },
  {
    "id": "578",
    "loc_id": "16150",
    "postcode": "25361",
    "city": "Elskop",
    "lat": "53.808782",
    "lng": "9.477172"
  },
  {
    "id": "579",
    "loc_id": "144474",
    "postcode": "01665",
    "city": "Triebischtal Perne",
    "lat": "51.0894",
    "lng": "13.4182"
  },
  {
    "id": "580",
    "loc_id": "25932",
    "postcode": "90530",
    "city": "Wendelstein",
    "lat": "Mittelfranken",
    "lng": "49.3536"
  },
  {
    "id": "581",
    "loc_id": "17651",
    "postcode": "24357",
    "city": "Güby",
    "lat": "54.4859065328657",
    "lng": "9.66688449680038"
  },
  {
    "id": "582",
    "loc_id": "22276",
    "postcode": "51491",
    "city": "Overath",
    "lat": "Bergisches Land",
    "lng": "50.95"
  },
  {
    "id": "583",
    "loc_id": "16485",
    "postcode": "74579",
    "city": "Fichtenau",
    "lat": "49.0667",
    "lng": "10.2167"
  },
  {
    "id": "584",
    "loc_id": "26522",
    "postcode": "94239",
    "city": "Zachenberg",
    "lat": "48.9667",
    "lng": "13"
  },
  {
    "id": "585",
    "loc_id": "132443",
    "postcode": "93449",
    "city": "Waldmünchen Häuslarn",
    "lat": "49.3786",
    "lng": "12.7042"
  },
  {
    "id": "586",
    "loc_id": "113131",
    "postcode": "42553",
    "city": "Velbert Neviges",
    "lat": "51.3098033",
    "lng": "7.0878942"
  },
  {
    "id": "587",
    "loc_id": "13830",
    "postcode": "24975",
    "city": "Ausacker",
    "lat": "54.7392898633",
    "lng": "9.57490558779"
  },
  {
    "id": "588",
    "loc_id": "143068",
    "postcode": "17154",
    "city": "Neukalen Neukalen",
    "lat": "53.82014",
    "lng": "12.78979"
  },
  {
    "id": "589",
    "loc_id": "17005",
    "postcode": "24214",
    "city": "Gettorf",
    "lat": "54.4069172040774",
    "lng": "9.97400405108938"
  },
  {
    "id": "590",
    "loc_id": "141984",
    "postcode": "04916",
    "city": "Herzberg (Elster) Gräfendorf bei Herzberg",
    "lat": "Elster",
    "lng": "51.6560759834675"
  },
  {
    "id": "591",
    "loc_id": "25145",
    "postcode": "03185",
    "city": "Turnow-Preilack",
    "lat": "51.8666761131432",
    "lng": "14.3999686190796"
  },
  {
    "id": "592",
    "loc_id": "15179",
    "postcode": "25712",
    "city": "Burg (Dithmarschen)",
    "lat": "54.000347",
    "lng": "9.258527"
  },
  {
    "id": "593",
    "loc_id": "19171",
    "postcode": "39517",
    "city": "Kehnert",
    "lat": "52.34104",
    "lng": "11.85533"
  },
  {
    "id": "594",
    "loc_id": "143424",
    "postcode": "17258",
    "city": "Feldberger Seenlandschaft Laeven",
    "lat": "53.3391",
    "lng": "13.4188"
  },
  {
    "id": "595",
    "loc_id": "22239",
    "postcode": "04749",
    "city": "Ostrau",
    "lat": "Sachsen",
    "lng": "51.2"
  },
  {
    "id": "596",
    "loc_id": "13578",
    "postcode": "83352",
    "city": "Altenmarkt an der Alz",
    "lat": "48",
    "lng": "12.5333"
  },
  {
    "id": "597",
    "loc_id": "81003",
    "postcode": "70376",
    "city": "Stuttgart Münster",
    "lat": "48.8213",
    "lng": "9.22"
  },
  {
    "id": "598",
    "loc_id": "13403",
    "postcode": "25572",
    "city": "Aebtissinwisch",
    "lat": "53.970947",
    "lng": "9.289993"
  },
  {
    "id": "599",
    "loc_id": "20653",
    "postcode": "84533",
    "city": "Marktl",
    "lat": "Inn",
    "lng": "48.25"
  },
  {
    "id": "600",
    "loc_id": "112971",
    "postcode": "42279",
    "city": "Wuppertal Stadt Sprockhövel",
    "lat": "51.36415",
    "lng": "7.24662000000001"
  },
  {
    "id": "601",
    "loc_id": "15644",
    "postcode": "99837",
    "city": "Dippach bei Berka",
    "lat": "50.9167",
    "lng": "10.0333"
  },
  {
    "id": "602",
    "loc_id": "25678",
    "postcode": "24601",
    "city": "Wankendorf",
    "lat": "54.11254",
    "lng": "10.20367"
  },
  {
    "id": "603",
    "loc_id": "16082",
    "postcode": "97249",
    "city": "Eisingen",
    "lat": "Kreis Würzburg",
    "lng": "49.7597"
  },
  {
    "id": "604",
    "loc_id": "26114",
    "postcode": "39638",
    "city": "Wiepke",
    "lat": "52.59986",
    "lng": "11.33304"
  },
  {
    "id": "605",
    "loc_id": "143647",
    "postcode": "18516",
    "city": "Süderholz",
    "lat": "Vorpommern Griebenow",
    "lng": "54.08316"
  },
  {
    "id": "606",
    "loc_id": "23802",
    "postcode": "55765",
    "city": "Schmißberg",
    "lat": "49.6667",
    "lng": "7.2"
  },
  {
    "id": "607",
    "loc_id": "21586",
    "postcode": "15913",
    "city": "Neu Zauche",
    "lat": "51.9274253457144",
    "lng": "14.0895286560059"
  },
  {
    "id": "608",
    "loc_id": "143619",
    "postcode": "18465",
    "city": "Tribsees Tribsees",
    "lat": "54.0908",
    "lng": "12.7605599999999"
  },
  {
    "id": "609",
    "loc_id": "84033",
    "postcode": "73485",
    "city": "Tannhausen bei Ellwangen",
    "lat": "Jagst Ellrichsbronn",
    "lng": "48.9667"
  },
  {
    "id": "610",
    "loc_id": "25569",
    "postcode": "74638",
    "city": "Waldenburg (Württemberg)",
    "lat": "49.1875",
    "lng": "9.64222"
  },
  {
    "id": "611",
    "loc_id": "143148",
    "postcode": "18276",
    "city": "Glasewitz Dehmen",
    "lat": "53.80255",
    "lng": "12.2823100000001"
  },
  {
    "id": "612",
    "loc_id": "85959",
    "postcode": "89611",
    "city": "Obermarchtal Brühlhof",
    "lat": "48.2333333",
    "lng": "9.5666667"
  },
  {
    "id": "613",
    "loc_id": "13925",
    "postcode": "76332",
    "city": "Bad Herrenalb",
    "lat": "48.8",
    "lng": "8.43333"
  },
  {
    "id": "614",
    "loc_id": "17401",
    "postcode": "55459",
    "city": "Grolsheim",
    "lat": "49.9",
    "lng": "7.91667"
  },
  {
    "id": "615",
    "loc_id": "15673",
    "postcode": "54636",
    "city": "Dockendorf",
    "lat": "49.9167",
    "lng": "6.46667"
  },
  {
    "id": "616",
    "loc_id": "25071",
    "postcode": "93492",
    "city": "Treffelstein",
    "lat": "49.4167",
    "lng": "12.6167"
  },
  {
    "id": "617",
    "loc_id": "50054",
    "postcode": "19412",
    "city": "Kuhlen-Wendorf",
    "lat": "53.68512",
    "lng": "11.62756"
  },
  {
    "id": "618",
    "loc_id": "15781",
    "postcode": "69221",
    "city": "Dossenheim",
    "lat": "49.4503",
    "lng": "8.67472"
  },
  {
    "id": "619",
    "loc_id": "26015",
    "postcode": "82405",
    "city": "Wessobrunn",
    "lat": "47.8833",
    "lng": "11.0333"
  },
  {
    "id": "620",
    "loc_id": "24143",
    "postcode": "82402",
    "city": "Seeshaupt",
    "lat": "47.8333",
    "lng": "11.3"
  },
  {
    "id": "621",
    "loc_id": "21808",
    "postcode": "55585",
    "city": "Norheim",
    "lat": "Nahe",
    "lng": "49.8"
  },
  {
    "id": "622",
    "loc_id": "20173",
    "postcode": "56244",
    "city": "Leuterod",
    "lat": "50.4833",
    "lng": "7.81667"
  },
  {
    "id": "623",
    "loc_id": "20016",
    "postcode": "55487",
    "city": "Laufersweiler",
    "lat": "49.9",
    "lng": "7.3"
  },
  {
    "id": "624",
    "loc_id": "24425",
    "postcode": "55576",
    "city": "Sprendlingen",
    "lat": "Rheinhessen",
    "lng": "49.8667"
  },
  {
    "id": "625",
    "loc_id": "143517",
    "postcode": "18334",
    "city": "Dettmannsdorf bei Bad Sülze Wöpkendorf",
    "lat": "54.12268",
    "lng": "12.50668"
  },
  {
    "id": "626",
    "loc_id": "144305",
    "postcode": "18569",
    "city": "Trent",
    "lat": "Rügen Libnitz",
    "lng": "54.5330476110632"
  },
  {
    "id": "627",
    "loc_id": "15308",
    "postcode": "49661",
    "city": "Cloppenburg",
    "lat": "52.84463",
    "lng": "8.05208"
  },
  {
    "id": "628",
    "loc_id": "17983",
    "postcode": "56761",
    "city": "Hauroth",
    "lat": "50.25",
    "lng": "7.1"
  },
  {
    "id": "629",
    "loc_id": "19303",
    "postcode": "96166",
    "city": "Kirchlauter",
    "lat": "50.05",
    "lng": "10.7167"
  },
  {
    "id": "630",
    "loc_id": "13501",
    "postcode": "07426",
    "city": "Allendorf bei Rudolstadt",
    "lat": "50.65",
    "lng": "11.1667"
  },
  {
    "id": "631",
    "loc_id": "25895",
    "postcode": "56191",
    "city": "Weitersburg",
    "lat": "50.4167",
    "lng": "7.6"
  },
  {
    "id": "632",
    "loc_id": "18963",
    "postcode": "16247",
    "city": "Joachimsthal",
    "lat": "52.97708",
    "lng": "13.7439899999999"
  },
  {
    "id": "633",
    "loc_id": "22917",
    "postcode": "78564",
    "city": "Reichenbach am Heuberg",
    "lat": "48.1333",
    "lng": "8.85"
  },
  {
    "id": "634",
    "loc_id": "13569",
    "postcode": "17209",
    "city": "Altenhof bei Röbel",
    "lat": "53.353855",
    "lng": "12.357349"
  },
  {
    "id": "635",
    "loc_id": "142304",
    "postcode": "14806",
    "city": "Belzig Dippmannsdorf",
    "lat": "52.22085",
    "lng": "12.59674"
  },
  {
    "id": "636",
    "loc_id": "15522",
    "postcode": "36466",
    "city": "Dermbach",
    "lat": "Thüringen",
    "lng": "50.7167"
  },
  {
    "id": "637",
    "loc_id": "153387",
    "postcode": "03172",
    "city": "Schenkendöbern Taubendorf",
    "lat": "51.87838",
    "lng": "14.6209"
  },
  {
    "id": "638",
    "loc_id": "24141",
    "postcode": "55629",
    "city": "Seesbach",
    "lat": "49.85",
    "lng": "7.55"
  },
  {
    "id": "639",
    "loc_id": "19081",
    "postcode": "55483",
    "city": "Kappel",
    "lat": "Hunsrück",
    "lng": "50"
  },
  {
    "id": "640",
    "loc_id": "18583",
    "postcode": "86568",
    "city": "Hollenbach bei Aichach",
    "lat": "48.4833",
    "lng": "11.0667"
  },
  {
    "id": "641",
    "loc_id": "23308",
    "postcode": "14778",
    "city": "Roskow",
    "lat": "52.47228",
    "lng": "12.7191800000001"
  },
  {
    "id": "642",
    "loc_id": "14855",
    "postcode": "06785",
    "city": "Brandhorst",
    "lat": "Sachsen-Anhalt",
    "lng": "51.80788"
  },
  {
    "id": "643",
    "loc_id": "24042",
    "postcode": "34639",
    "city": "Schwarzenborn",
    "lat": "Knüll",
    "lng": "50.9167"
  },
  {
    "id": "644",
    "loc_id": "25665",
    "postcode": "24997",
    "city": "Wanderup",
    "lat": "54.6880102531646",
    "lng": "9.33558143930447"
  },
  {
    "id": "645",
    "loc_id": "22506",
    "postcode": "06774",
    "city": "Plodda",
    "lat": "51.65992",
    "lng": "12.44803"
  },
  {
    "id": "646",
    "loc_id": "21377",
    "postcode": "76776",
    "city": "Neuburg am Rhein",
    "lat": "48.9833",
    "lng": "8.25"
  },
  {
    "id": "647",
    "loc_id": "26664",
    "postcode": "04720",
    "city": "Zschaitz-Ottewig",
    "lat": "51.175",
    "lng": "13.2"
  },
  {
    "id": "648",
    "loc_id": "23743",
    "postcode": "02959",
    "city": "Schleife",
    "lat": "Oberlausitz",
    "lng": "51.54389"
  },
  {
    "id": "649",
    "loc_id": "142939",
    "postcode": "18196",
    "city": "Kessin bei Rostock Beselin",
    "lat": "54.04714",
    "lng": "12.21061"
  },
  {
    "id": "650",
    "loc_id": "14058",
    "postcode": "21730",
    "city": "Balje",
    "lat": "Kreis Stade",
    "lng": "53.83159"
  },
  {
    "id": "651",
    "loc_id": "81445",
    "postcode": "76228",
    "city": "Karlsruhe (Baden) Palmbach",
    "lat": "49.0047",
    "lng": "8.38583"
  },
  {
    "id": "652",
    "loc_id": "142120",
    "postcode": "16775",
    "city": "Gransee Kraatz-Buberow",
    "lat": "52.97902",
    "lng": "13.19501"
  },
  {
    "id": "653",
    "loc_id": "14627",
    "postcode": "86399",
    "city": "Bobingen",
    "lat": "48.2667",
    "lng": "10.8333"
  },
  {
    "id": "654",
    "loc_id": "14439",
    "postcode": "94501",
    "city": "Beutelsbach",
    "lat": "Niederbayern",
    "lng": "48.55"
  },
  {
    "id": "655",
    "loc_id": "144328",
    "postcode": "18528",
    "city": "Zirkow Schmacht",
    "lat": "54.38386",
    "lng": "13.57946"
  },
  {
    "id": "656",
    "loc_id": "143240",
    "postcode": "17168",
    "city": "Warnkenhagen bei Teterow Tellow",
    "lat": "53.84659",
    "lng": "12.51693"
  },
  {
    "id": "657",
    "loc_id": "20914",
    "postcode": "86866",
    "city": "Mickhausen",
    "lat": "48.25",
    "lng": "10.6333"
  },
  {
    "id": "658",
    "loc_id": "17895",
    "postcode": "49733",
    "city": "Haren (Ems)",
    "lat": "52.79468",
    "lng": "7.23676"
  },
  {
    "id": "659",
    "loc_id": "25015",
    "postcode": "25832",
    "city": "Tönning (Nordseebad)",
    "lat": "54.3180909829608",
    "lng": "8.93713844163407"
  },
  {
    "id": "660",
    "loc_id": "16668",
    "postcode": "37318",
    "city": "Fretterode",
    "lat": "51.3193821956505",
    "lng": "10.0078964233398"
  },
  {
    "id": "661",
    "loc_id": "20513",
    "postcode": "24235",
    "city": "Lutterbek",
    "lat": "54.3912646577955",
    "lng": "10.2765577793122"
  },
  {
    "id": "662",
    "loc_id": "20335",
    "postcode": "39240",
    "city": "Lödderitz",
    "lat": "51.88323",
    "lng": "11.95331"
  },
  {
    "id": "663",
    "loc_id": "25979",
    "postcode": "73249",
    "city": "Wernau (Neckar)",
    "lat": "48.7",
    "lng": "9.41667"
  },