[
  {
    "city": "amsterdam",
    "lat": 52.3728,
    "lng": 4.8936,
    "region": "noord-holland",
    "id": 1528355309
  },
  {
    "city": "the hague (den haag)",
    "lat": 52.08,
    "lng": 4.31,
    "region": "zuid-holland",
    "id": 1528799905
  },
  {
    "city": "rotterdam",
    "lat": 51.9167,
    "lng": 4.5,
    "region": "zuid-holland",
    "id": 1528892850
  },
  {
    "city": "utrecht",
    "lat": 52.0833,
    "lng": 5.1167,
    "region": "utrecht",
    "id": 1528871692
  },
  {
    "city": "maastricht",
    "lat": 50.85,
    "lng": 5.6833,
    "region": "limburg",
    "id": 1528563623
  },
  {
    "city": "eindhoven",
    "lat": 51.4333,
    "lng": 5.4833,
    "region": "noord-brabant",
    "id": 1528636212
  },
  {
    "city": "groningen",
    "lat": 53.2167,
    "lng": 6.5667,
    "region": "groningen",
    "id": 1528295161
  },
  {
    "city": "tilburg",
    "lat": 51.55,
    "lng": 5.0833,
    "region": "noord-brabant",
    "id": 1528817379
  },
  {
    "city": "almere",
    "lat": 52.3667,
    "lng": 5.2167,
    "region": "flevoland",
    "id": 1528683566
  },
  {
    "city": "breda",
    "lat": 51.5889,
    "lng": 4.7758,
    "region": "noord-brabant",
    "id": 1528921549
  },
  {
    "city": "nijmegen",
    "lat": 51.8475,
    "lng": 5.8625,
    "region": "gelderland",
    "id": 1528136727
  },
  {
    "city": "haarlem",
    "lat": 52.3833,
    "lng": 4.6333,
    "region": "noord-holland",
    "id": 1528822178
  },
  {
    "city": "arnhem",
    "lat": 51.9833,
    "lng": 5.9167,
    "region": "gelderland",
    "id": 1528862562
  },
  {
    "city": "apeldoorn",
    "lat": 52.2167,
    "lng": 5.9667,
    "region": "gelderland",
    "id": 1528057552
  },
  {
    "city": "enschede",
    "lat": 52.2167,
    "lng": 6.9,
    "region": "overijssel",
    "id": 1528181808
  },
  {
    "city": "amersfoort",
    "lat": 52.15,
    "lng": 5.3833,
    "region": "utrecht",
    "id": 1528206992
  },
  {
    "city": "s-hertogenbosch",
    "lat": 51.6833,
    "lng": 5.3,
    "region": "noord-brabant",
    "id": 1528012333
  },
  {
    "city": "zaanstad",
    "lat": 52.4697,
    "lng": 4.7767,
    "region": "noord-holland",
    "id": 1528395473
  },
  {
    "city": "hoofddorp",
    "lat": 52.3061,
    "lng": 4.6907,
    "region": "noord-holland",
    "id": 1528519634
  },
  {
    "city": "zwolle",
    "lat": 52.5167,
    "lng": 6.1,
    "region": "overijssel",
    "id": 1528690076
  },
  {
    "city": "leiden",
    "lat": 52.16,
    "lng": 4.49,
    "region": "zuid-holland",
    "id": 1528966223
  },
  {
    "city": "zoetermeer",
    "lat": 52.0667,
    "lng": 4.5,
    "region": "zuid-holland",
    "id": 1528416914
  },
  {
    "city": "leeuwarden",
    "lat": 53.2,
    "lng": 5.7833,
    "region": "fryslân",
    "id": 1528992603
  },
  {
    "city": "dordrecht",
    "lat": 51.7958,
    "lng": 4.6783,
    "region": "zuid-holland",
    "id": 1528952691
  },
  {
    "city": "alphen aan den rijn",
    "lat": 52.1333,
    "lng": 4.6667,
    "region": "zuid-holland",
    "id": 1528593016
  },
  {
    "city": "alkmaar",
    "lat": 52.6333,
    "lng": 4.75,
    "region": "noord-holland",
    "id": 1528566376
  },
  {
    "city": "delft",
    "lat": 52.0117,
    "lng": 4.3592,
    "region": "zuid-holland",
    "id": 1528448452
  },
  {
    "city": "emmen",
    "lat": 52.7833,
    "lng": 6.9,
    "region": "drenthe",
    "id": 1528332075
  },
  {
    "city": "deventer",
    "lat": 52.25,
    "lng": 6.15,
    "region": "overijssel",
    "id": 1528681564
  },
  {
    "city": "amstelveen",
    "lat": 52.3,
    "lng": 4.85,
    "region": "noord-holland",
    "id": 1528243202
  },
  {
    "city": "purmerend",
    "lat": 52.5,
    "lng": 4.95,
    "region": "noord-holland",
    "id": 1528918720
  },
  {
    "city": "schiedam",
    "lat": 51.9167,
    "lng": 4.4,
    "region": "zuid-holland",
    "id": 1528910170
  },
  {
    "city": "zaandam",
    "lat": 52.4333,
    "lng": 4.8333,
    "region": "noord-holland",
    "id": 1528041299
  },
  {
    "city": "lelystad",
    "lat": 52.5,
    "lng": 5.4833,
    "region": "flevoland",
    "id": 1528990721
  },
  {
    "city": "gouda",
    "lat": 52.0111,
    "lng": 4.7111,
    "region": "zuid-holland",
    "id": 1528695192
  },
  {
    "city": "vlaardingen",
    "lat": 51.9,
    "lng": 4.35,
    "region": "zuid-holland",
    "id": 1528137355
  },
  {
    "city": "spijkenisse",
    "lat": 51.85,
    "lng": 4.3333,
    "region": "zuid-holland",
    "id": 1528234095
  },
  {
    "city": "capelle aan den ijssel",
    "lat": 51.9333,
    "lng": 4.5833,
    "region": "zuid-holland",
    "id": 1528883195
  },
  {
    "city": "veenendaal",
    "lat": 52.0167,
    "lng": 5.55,
    "region": "utrecht",
    "id": 1528062494
  },
  {
    "city": "assen",
    "lat": 53,
    "lng": 6.5667,
    "region": "drenthe",
    "id": 1528917714
  },
  {
    "city": "katwijk",
    "lat": 52.2,
    "lng": 4.4167,
    "region": "zuid-holland",
    "id": 1528804942
  },
  {
    "city": "scheveningen",
    "lat": 52.1081,
    "lng": 4.2731,
    "region": "zuid-holland",
    "id": 1528986041
  },
  {
    "city": "rijswijk",
    "lat": 52.0456,
    "lng": 4.33,
    "region": "zuid-holland",
    "id": 1528456884
  },
  {
    "city": "barendrecht",
    "lat": 51.85,
    "lng": 4.5333,
    "region": "zuid-holland",
    "id": 1528438292
  },
  {
    "city": "schagen",
    "lat": 52.7833,
    "lng": 4.8,
    "region": "noord-holland",
    "id": 1528010358
  },
  {
    "city": "middelburg",
    "lat": 51.5,
    "lng": 3.6167,
    "region": "zeeland",
    "id": 1528241984
  },
  {
    "city": "kerkrade",
    "lat": 50.8667,
    "lng": 6.0667,
    "region": "limburg",
    "id": 1528289295
  },
  {
    "city": "beverwijk",
    "lat": 52.4833,
    "lng": 4.65,
    "region": "noord-holland",
    "id": 1528896975
  },
  {
    "city": "hoogvliet",
    "lat": 51.8667,
    "lng": 4.35,
    "region": "zuid-holland",
    "id": 1528815717
  },
  {
    "city": "maassluis",
    "lat": 51.9333,
    "lng": 4.2333,
    "region": "zuid-holland",
    "id": 1528829387
  },
  {
    "city": "papendrecht",
    "lat": 51.8333,
    "lng": 4.6833,
    "region": "zuid-holland",
    "id": 1528603261
  },
  {
    "city": "bussum",
    "lat": 52.2833,
    "lng": 5.1667,
    "region": "noord-holland",
    "id": 1528731782
  },
  {
    "city": "hendrik-ido-ambacht",
    "lat": 51.85,
    "lng": 4.6333,
    "region": "zuid-holland",
    "id": 1528804375
  },
  {
    "city": "diemen",
    "lat": 52.3333,
    "lng": 4.9667,
    "region": "noord-holland",
    "id": 1528749595
  },
  {
    "city": "krimpen aan den ijssel",
    "lat": 51.9167,
    "lng": 4.5833,
    "region": "zuid-holland",
    "id": 1528654636
  },
  {
    "city": "vleuten",
    "lat": 52.1081,
    "lng": 5.015,
    "region": "utrecht",
    "id": 1528752483
  },
  {
    "city": "heemstede",
    "lat": 52.35,
    "lng": 4.6167,
    "region": "noord-holland",
    "id": 1528827638
  },
  {
    "city": "geldrop",
    "lat": 51.4222,
    "lng": 5.5578,
    "region": "noord-brabant",
    "id": 1528955608
  },
  {
    "city": "leiderdorp",
    "lat": 52.1667,
    "lng": 4.5333,
    "region": "zuid-holland",
    "id": 1528990353
  },
  {
    "city": "oegstgeest",
    "lat": 52.1833,
    "lng": 4.4667,
    "region": "zuid-holland",
    "id": 1528455119
  },
  {
    "city": "voorschoten",
    "lat": 52.1333,
    "lng": 4.45,
    "region": "zuid-holland",
    "id": 1528045631
  },
  {
    "city": "de meern",
    "lat": 52.0781,
    "lng": 5.0281,
    "region": "utrecht",
    "id": 1528629821
  },
  {
    "city": "krommenie",
    "lat": 52.5,
    "lng": 4.7667,
    "region": "noord-holland",
    "id": 1528703379
  },
  {
    "city": "alblasserdam",
    "lat": 51.8702,
    "lng": 4.6667,
    "region": "zuid-holland",
    "id": 1528038126
  },
  {
    "city": "glanerbrug",
    "lat": 52.215,
    "lng": 6.9742,
    "region": "overijssel",
    "id": 1528488534
  },
  {
    "city": "boskoop",
    "lat": 52.0667,
    "lng": 4.65,
    "region": "zuid-holland",
    "id": 1528548722
  },
  {
    "city": "koog aan de zaan",
    "lat": 52.4667,
    "lng": 4.8,
    "region": "noord-holland",
    "id": 1528862520
  },
  {
    "city": "zaandijk",
    "lat": 52.4667,
    "lng": 4.8,
    "region": "noord-holland",
    "id": 1528388373
  },
  {
    "city": "helmond",
    "lat": 51.4833,
    "lng": 5.65,
    "region": "noord-brabant",
    "id": 1528158256
  },
  {
    "city": "hilversum",
    "lat": 52.2333,
    "lng": 5.1667,
    "region": "noord-holland",
    "id": 1528160832
  },
  {
    "city": "oss",
    "lat": 51.7667,
    "lng": 5.5167,
    "region": "noord-brabant",
    "id": 1528488100
  },
  {
    "city": "heerlen",
    "lat": 50.8833,
    "lng": 5.9833,
    "region": "limburg",
    "id": 1528095552
  },
  {
    "city": "hengelo",
    "lat": 52.2656,
    "lng": 6.7931,
    "region": "overijssel",
    "id": 1528989102
  },
  {
    "city": "roosendaal",
    "lat": 51.5333,
    "lng": 4.45,
    "region": "noord-brabant",
    "id": 1528671703
  },
  {
    "city": "hoorn",
    "lat": 52.65,
    "lng": 5.0667,
    "region": "noord-holland",
    "id": 1528487371
  },
  {
    "city": "almelo",
    "lat": 52.35,
    "lng": 6.6667,
    "region": "overijssel",
    "id": 1528084436
  },
  {
    "city": "ede",
    "lat": 52.05,
    "lng": 5.6667,
    "region": "gelderland",
    "id": 1528361626
  },
  {
    "city": "velsen-zuid",
    "lat": 52.4667,
    "lng": 4.6167,
    "region": "noord-holland",
    "id": 1528400159
  },
  {
    "city": "bergen op zoom",
    "lat": 51.5,
    "lng": 4.3,
    "region": "noord-brabant",
    "id": 1528854489
  },
  {
    "city": "zeist",
    "lat": 52.0906,
    "lng": 5.2331,
    "region": "utrecht",
    "id": 1528328689
  },
  {
    "city": "nieuwegein",
    "lat": 52.0333,
    "lng": 5.0833,
    "region": "utrecht",
    "id": 1528701694
  },
  {
    "city": "barneveld",
    "lat": 52.1333,
    "lng": 5.5833,
    "region": "gelderland",
    "id": 1528016658
  },
  {
    "city": "hardenberg",
    "lat": 52.5667,
    "lng": 6.6167,
    "region": "overijssel",
    "id": 1528418697
  },
  {
    "city": "heerhugowaard",
    "lat": 52.6667,
    "lng": 4.8333,
    "region": "noord-holland",
    "id": 1528560409
  },
  {
    "city": "doetinchem",
    "lat": 51.9667,
    "lng": 6.3,
    "region": "gelderland",
    "id": 1528625414
  },
  {
    "city": "roermond",
    "lat": 51.2,
    "lng": 5.9833,
    "region": "limburg",
    "id": 1528173066
  },
  {
    "city": "oosterhout",
    "lat": 51.6431,
    "lng": 4.8569,
    "region": "noord-brabant",
    "id": 1528012745
  },
  {
    "city": "den helder",
    "lat": 52.9333,
    "lng": 4.75,
    "region": "noord-holland",
    "id": 1528605675
  },
  {
    "city": "hoogeveen",
    "lat": 52.7333,
    "lng": 6.4833,
    "region": "drenthe",
    "id": 1528912562
  },
  {
    "city": "kampen",
    "lat": 52.55,
    "lng": 5.9167,
    "region": "overijssel",
    "id": 1528270646
  },
  {
    "city": "terneuzen",
    "lat": 51.3333,
    "lng": 3.8333,
    "region": "zeeland",
    "id": 1528400291
  },
  {
    "city": "woerden",
    "lat": 52.0833,
    "lng": 4.8833,
    "region": "utrecht",
    "id": 1528805215
  },
  {
    "city": "houten",
    "lat": 52.0333,
    "lng": 5.1667,
    "region": "utrecht",
    "id": 1528005173
  },
  {
    "city": "sittard",
    "lat": 51,
    "lng": 5.8667,
    "region": "limburg",
    "id": 1528793014
  },
  {
    "city": "weert",
    "lat": 51.25,
    "lng": 5.7,
    "region": "limburg",
    "id": 1528448216
  },
  {
    "city": "ijmuiden",
    "lat": 52.4586,
    "lng": 4.6194,
    "region": "noord-holland",
    "id": 1528185831
  },
  {
    "city": "harderwijk",
    "lat": 52.35,
    "lng": 5.6167,
    "region": "gelderland",
    "id": 1528263150
  },
  {
    "city": "waalwijk",
    "lat": 51.6833,
    "lng": 5.0667,
    "region": "noord-brabant",
    "id": 1528562202
  },
  {
    "city": "zutphen",
    "lat": 52.14,
    "lng": 6.195,
    "region": "gelderland",
    "id": 1528580352
  },
  {
    "city": "ridderkerk",
    "lat": 51.8667,
    "lng": 4.6,
    "region": "zuid-holland",
    "id": 1528684351
  },
  {
    "city": "soest",
    "lat": 52.1833,
    "lng": 5.3,
    "region": "utrecht",
    "id": 1528216001
  },
  {
    "city": "veldhoven",
    "lat": 51.42,
    "lng": 5.405,
    "region": "noord-brabant",
    "id": 1528462700
  },
  {
    "city": "zwijndrecht",
    "lat": 51.8167,
    "lng": 4.65,
    "region": "zuid-holland",
    "id": 1528524104
  },
  {
    "city": "drachten",
    "lat": 53.1,
    "lng": 6.1,
    "region": "fryslân",
    "id": 1528367114
  },
  {
    "city": "heusden",
    "lat": 51.6998,
    "lng": 5.166,
    "region": "noord-brabant",
    "id": 1528318846
  },
  {
    "city": "medemblik",
    "lat": 52.6833,
    "lng": 5.0333,
    "region": "noord-holland",
    "id": 1528256385
  },
  {
    "city": "zevenaar",
    "lat": 51.9167,
    "lng": 6.0667,
    "region": "gelderland",
    "id": 1528993139
  },
  {
    "city": "noordwijk",
    "lat": 52.2333,
    "lng": 4.4333,
    "region": "zuid-holland",
    "id": 1528932000
  },
  {
    "city": "etten-leur",
    "lat": 51.5667,
    "lng": 4.6333,
    "region": "noord-brabant",
    "id": 1528512039
  },
  {
    "city": "vlissingen",
    "lat": 51.45,
    "lng": 3.5667,
    "region": "zeeland",
    "id": 1528524195
  },
  {
    "city": "rheden",
    "lat": 52.0167,
    "lng": 6.05,
    "region": "gelderland",
    "id": 1528068057
  },
  {
    "city": "nijkerk",
    "lat": 52.2333,
    "lng": 5.4833,
    "region": "gelderland",
    "id": 1528422817
  },
  {
    "city": "de bilt",
    "lat": 52.1167,
    "lng": 5.2,
    "region": "utrecht",
    "id": 1528141084
  },
  {
    "city": "venray",
    "lat": 51.5333,
    "lng": 5.9833,
    "region": "limburg",
    "id": 1528891119
  },
  {
    "city": "tiel",
    "lat": 51.8833,
    "lng": 5.4333,
    "region": "gelderland",
    "id": 1528386027
  },
  {
    "city": "huizen",
    "lat": 52.3,
    "lng": 5.25,
    "region": "noord-holland",
    "id": 1528154484
  },
  {
    "city": "uden",
    "lat": 51.65,
    "lng": 5.6167,
    "region": "noord-brabant",
    "id": 1528113509
  },
  {
    "city": "dronten",
    "lat": 52.5167,
    "lng": 5.7167,
    "region": "flevoland",
    "id": 1528712239
  },
  {
    "city": "wijchen",
    "lat": 51.8,
    "lng": 5.7333,
    "region": "gelderland",
    "id": 1528300433
  },
  {
    "city": "hellevoetsluis",
    "lat": 51.8167,
    "lng": 4.1333,
    "region": "zuid-holland",
    "id": 1528739669
  },
  {
    "city": "maarssen",
    "lat": 52.1351,
    "lng": 5.0413,
    "region": "utrecht",
    "id": 1528103509
  },
  {
    "city": "wageningen",
    "lat": 51.9667,
    "lng": 5.6667,
    "region": "gelderland",
    "id": 1528070340
  },
  {
    "city": "heemskerk",
    "lat": 52.5167,
    "lng": 4.6667,
    "region": "noord-holland",
    "id": 1528784023
  },
  {
    "city": "gorinchem",
    "lat": 51.8306,
    "lng": 4.9742,
    "region": "zuid-holland",
    "id": 1528005855
  },
  {
    "city": "landgraaf",
    "lat": 50.9083,
    "lng": 6.0297,
    "region": "limburg",
    "id": 1528095847
  },
  {
    "city": "teijlingen",
    "lat": 52.215,
    "lng": 4.5103,
    "region": "zuid-holland",
    "id": 1528639045
  },
  {
    "city": "veghel",
    "lat": 51.6167,
    "lng": 5.55,
    "region": "noord-brabant",
    "id": 1528658070
  },
  {
    "city": "venlo",
    "lat": 51.3667,
    "lng": 6.1667,
    "region": "limburg",
    "id": 1528690544
  },
  {
    "city": "goes",
    "lat": 51.5,
    "lng": 3.8833,
    "region": "zeeland",
    "id": 1528134132
  },
  {
    "city": "raalte",
    "lat": 52.3833,
    "lng": 6.2667,
    "region": "overijssel",
    "id": 1528789271
  },
  {
    "city": "moerdijk",
    "lat": 51.65,
    "lng": 4.6,
    "region": "noord-brabant",
    "id": 1528060110
  },
  {
    "city": "castricum",
    "lat": 52.55,
    "lng": 4.6667,
    "region": "noord-holland",
    "id": 1528242440
  },
  {
    "city": "bronkhorst",
    "lat": 52.0833,
    "lng": 6.1833,
    "region": "gelderland",
    "id": 1528829480
  },
  {
    "city": "hellendoorn",
    "lat": 52.3667,
    "lng": 6.4667,
    "region": "overijssel",
    "id": 1528944468
  },
  {
    "city": "berg en dal",
    "lat": 51.8167,
    "lng": 5.9167,
    "region": "gelderland",
    "id": 1528151765
  },
  {
    "city": "coevorden",
    "lat": 52.6667,
    "lng": 6.75,
    "region": "drenthe",
    "id": 1528647157
  },
  {
    "city": "meppel",
    "lat": 52.7,
    "lng": 6.1833,
    "region": "drenthe",
    "id": 1528720406
  },
  {
    "city": "ijsselstein",
    "lat": 52.0167,
    "lng": 5.0333,
    "region": "utrecht",
    "id": 1528645762
  },
  {
    "city": "tynaarlo",
    "lat": 53.0833,
    "lng": 6.5833,
    "region": "drenthe",
    "id": 1528510592
  },
  {
    "city": "lochem",
    "lat": 52.1615,
    "lng": 6.4152,
    "region": "gelderland",
    "id": 1528747792
  },
  {
    "city": "sneek",
    "lat": 53.0325,
    "lng": 5.66,
    "region": "fryslân",
    "id": 1528519107
  },
  {
    "city": "boxtel",
    "lat": 51.5833,
    "lng": 5.3333,
    "region": "noord-brabant",
    "id": 1528314024
  },
  {
    "city": "epe",
    "lat": 52.35,
    "lng": 5.9833,
    "region": "gelderland",
    "id": 1528488090
  },
  {
    "city": "oldenzaal",
    "lat": 52.3167,
    "lng": 6.9333,
    "region": "overijssel",
    "id": 1528961744
  },
  {
    "city": "aalsmeer",
    "lat": 52.2667,
    "lng": 4.75,
    "region": "noord-holland",
    "id": 1528899853
  },
  {
    "city": "oisterwijk",
    "lat": 51.5833,
    "lng": 5.2,
    "region": "noord-brabant",
    "id": 1528135071
  },
  {
    "city": "deurne",
    "lat": 51.4667,
    "lng": 5.8,
    "region": "noord-brabant",
    "id": 1528815355
  },
  {
    "city": "vught",
    "lat": 51.65,
    "lng": 5.3,
    "region": "noord-brabant",
    "id": 1528328553
  },
  {
    "city": "waddinxveen",
    "lat": 52.05,
    "lng": 4.65,
    "region": "zuid-holland",
    "id": 1528011369
  },
  {
    "city": "nieuw-vennep",
    "lat": 52.2644,
    "lng": 4.6347,
    "region": "noord-holland",
    "id": 1528802124
  },
  {
    "city": "rosmalen",
    "lat": 51.7167,
    "lng": 5.3667,
    "region": "noord-brabant",
    "id": 1528018450
  },
  {
    "city": "renkum",
    "lat": 51.9833,
    "lng": 5.85,
    "region": "gelderland",
    "id": 1528187286
  },
  {
    "city": "stadskanaal",
    "lat": 52.9833,
    "lng": 6.95,
    "region": "groningen",
    "id": 1528657709
  },
  {
    "city": "valkenswaard",
    "lat": 51.35,
    "lng": 5.4667,
    "region": "noord-brabant",
    "id": 1528944698
  },
  {
    "city": "uithoorn",
    "lat": 52.2333,
    "lng": 4.8333,
    "region": "noord-holland",
    "id": 1528483112
  },
  {
    "city": "best",
    "lat": 51.5167,
    "lng": 5.4,
    "region": "noord-brabant",
    "id": 1528108081
  },
  {
    "city": "leusden",
    "lat": 52.1333,
    "lng": 5.4333,
    "region": "utrecht",
    "id": 1528565031
  },
  {
    "city": "bergen",
    "lat": 52.6667,
    "lng": 4.7167,
    "region": "noord-holland",
    "id": 1528106849
  },
  {
    "city": "heesch",
    "lat": 51.7333,
    "lng": 5.5333,
    "region": "noord-brabant",
    "id": 1528844626
  },
  {
    "city": "culemborg",
    "lat": 51.95,
    "lng": 5.2333,
    "region": "gelderland",
    "id": 1528861210
  },
  {
    "city": "sint-michielsgestel",
    "lat": 51.6433,
    "lng": 5.3586,
    "region": "noord-brabant",
    "id": 1528884798
  },
  {
    "city": "oosterend",
    "lat": 53.0036,
    "lng": 6.0664,
    "region": "fryslân",
    "id": 1528797070
  },
  {
    "city": "zaltbommel",
    "lat": 51.8,
    "lng": 5.25,
    "region": "gelderland",
    "id": 1528934368
  },
  {
    "city": "brunssum",
    "lat": 50.95,
    "lng": 5.9667,
    "region": "limburg",
    "id": 1528862260
  },
  {
    "city": "nieuwkoop",
    "lat": 52.1833,
    "lng": 4.7667,
    "region": "zuid-holland",
    "id": 1528015076
  },
  {
    "city": "boxmeer",
    "lat": 51.65,
    "lng": 5.95,
    "region": "noord-brabant",
    "id": 1528624004
  },
  {
    "city": "winterswijk",
    "lat": 51.9667,
    "lng": 6.7167,
    "region": "gelderland",
    "id": 1528225916
  },
  {
    "city": "dalfsen",
    "lat": 52.5,
    "lng": 6.25,
    "region": "overijssel",
    "id": 1528339087
  },
  {
    "city": "langedijk",
    "lat": 52.6936,
    "lng": 4.7944,
    "region": "noord-holland",
    "id": 1528789674
  },
  {
    "city": "pijnacker",
    "lat": 52.0167,
    "lng": 4.4333,
    "region": "zuid-holland",
    "id": 1528994302
  },
  {
    "city": "heerenveen",
    "lat": 52.95,
    "lng": 5.9333,
    "region": "fryslân",
    "id": 1528356043
  },
  {
    "city": "nunspeet",
    "lat": 52.3833,
    "lng": 5.7833,
    "region": "gelderland",
    "id": 1528766305
  },
  {
    "city": "blerick",
    "lat": 51.3667,
    "lng": 6.15,
    "region": "limburg",
    "id": 1528516428
  },
  {
    "city": "veendam",
    "lat": 53.1,
    "lng": 6.8833,
    "region": "groningen",
    "id": 1528706438
  },
  {
    "city": "hulst",
    "lat": 51.2833,
    "lng": 4.05,
    "region": "zeeland",
    "id": 1528357490
  },
  {
    "city": "drimmelen",
    "lat": 51.6833,
    "lng": 4.8,
    "region": "noord-brabant",
    "id": 1528513571
  },
  {
    "city": "sliedrecht",
    "lat": 51.8167,
    "lng": 4.7667,
    "region": "zuid-holland",
    "id": 1528494904
  },
  {
    "city": "aalten",
    "lat": 51.9333,
    "lng": 6.5833,
    "region": "gelderland",
    "id": 1528326020
  },
  {
    "city": "wassenaar",
    "lat": 52.15,
    "lng": 4.4,
    "region": "zuid-holland",
    "id": 1528746121
  },
  {
    "city": "ermelo",
    "lat": 52.3,
    "lng": 5.6167,
    "region": "gelderland",
    "id": 1528737145
  },
  {
    "city": "dongen",
    "lat": 51.6333,
    "lng": 4.9333,
    "region": "noord-brabant",
    "id": 1528299202
  },
  {
    "city": "werkendam",
    "lat": 51.8,
    "lng": 4.9,
    "region": "noord-brabant",
    "id": 1528525610
  },
  {
    "city": "geldermalsen",
    "lat": 51.8833,
    "lng": 5.2833,
    "region": "gelderland",
    "id": 1528816915
  },
  {
    "city": "beuningen",
    "lat": 51.8667,
    "lng": 5.7667,
    "region": "gelderland",
    "id": 1528306688
  },
  {
    "city": "tholen",
    "lat": 51.5333,
    "lng": 4.2,
    "region": "zeeland",
    "id": 1528449757
  },
  {
    "city": "emmeloord",
    "lat": 52.7097,
    "lng": 5.7508,
    "region": "flevoland",
    "id": 1528979701
  },
  {
    "city": "stein",
    "lat": 50.9667,
    "lng": 5.7667,
    "region": "limburg",
    "id": 1528261703
  },
  {
    "city": "duiven",
    "lat": 51.95,
    "lng": 6.0333,
    "region": "gelderland",
    "id": 1528557240
  },
  {
    "city": "veenoord",
    "lat": 52.9875,
    "lng": 6.2914,
    "region": "fryslân",
    "id": 1528771829
  },
  {
    "city": "oud-beijerland",
    "lat": 51.8167,
    "lng": 4.4,
    "region": "zuid-holland",
    "id": 1528064011
  },
  {
    "city": "baarn",
    "lat": 52.2167,
    "lng": 5.2833,
    "region": "utrecht",
    "id": 1528984547
  },
  {
    "city": "heiloo",
    "lat": 52.6,
    "lng": 4.7167,
    "region": "noord-holland",
    "id": 1528757776
  },
  {
    "city": "cuijk",
    "lat": 51.7296,
    "lng": 5.881,
    "region": "noord-brabant",
    "id": 1528466383
  },
  {
    "city": "nijverdal",
    "lat": 52.3667,
    "lng": 6.4667,
    "region": "overijssel",
    "id": 1528550649
  },
  {
    "city": "steenbergen",
    "lat": 51.5833,
    "lng": 4.25,
    "region": "noord-brabant",
    "id": 1528925300
  },
  {
    "city": "voorst",
    "lat": 52.2333,
    "lng": 6.0833,
    "region": "gelderland",
    "id": 1528065793
  },
  {
    "city": "delfzijl",
    "lat": 53.3333,
    "lng": 6.9167,
    "region": "groningen",
    "id": 1528897599
  },
  {
    "city": "wierden",
    "lat": 52.35,
    "lng": 6.6,
    "region": "overijssel",
    "id": 1528021372
  },
  {
    "city": "putten",
    "lat": 52.2667,
    "lng": 5.6,
    "region": "gelderland",
    "id": 1528973473
  },
  {
    "city": "borne",
    "lat": 52.3,
    "lng": 6.75,
    "region": "overijssel",
    "id": 1528920797
  },
  {
    "city": "goirle",
    "lat": 51.5167,
    "lng": 5.0667,
    "region": "noord-brabant",
    "id": 1528485242
  },
  {
    "city": "haaksbergen",
    "lat": 52.15,
    "lng": 6.75,
    "region": "overijssel",
    "id": 1528342884
  },
  {
    "city": "lisse",
    "lat": 52.25,
    "lng": 4.55,
    "region": "zuid-holland",
    "id": 1528160050
  },
  {
    "city": "wijk bij duurstede",
    "lat": 51.9833,
    "lng": 5.3333,
    "region": "utrecht",
    "id": 1528933907
  },
  {
    "city": "volendam",
    "lat": 52.4994,
    "lng": 5.0675,
    "region": "noord-holland",
    "id": 1528968861
  },
  {
    "city": "oldebroek",
    "lat": 52.45,
    "lng": 5.9,
    "region": "gelderland",
    "id": 1528582577
  },
  {
    "city": "bloemendaal",
    "lat": 52.4,
    "lng": 4.6,
    "region": "noord-holland",
    "id": 1528509651
  },
  {
    "city": "loon op zand",
    "lat": 51.6667,
    "lng": 5.0333,
    "region": "noord-brabant",
    "id": 1528312573
  },
  {
    "city": "hillegom",
    "lat": 52.2833,
    "lng": 4.5833,
    "region": "zuid-holland",
    "id": 1528098877
  },
  {
    "city": "elburg",
    "lat": 52.45,
    "lng": 5.85,
    "region": "gelderland",
    "id": 1528998186
  },
  {
    "city": "s-gravenzande",
    "lat": 52,
    "lng": 4.1667,
    "region": "zuid-holland",
    "id": 1528221207
  },
  {
    "city": "sluis",
    "lat": 51.3083,
    "lng": 3.3861,
    "region": "zeeland",
    "id": 1528332351
  },
  {
    "city": "rucphen",
    "lat": 51.5333,
    "lng": 4.5833,
    "region": "noord-brabant",
    "id": 1528156482
  },
  {
    "city": "beek en donk",
    "lat": 51.5347,
    "lng": 5.6303,
    "region": "noord-brabant",
    "id": 1528543857
  },
  {
    "city": "losser",
    "lat": 52.2667,
    "lng": 7,
    "region": "overijssel",
    "id": 1528246399
  },
  {
    "city": "zeewolde",
    "lat": 52.3333,
    "lng": 5.55,
    "region": "flevoland",
    "id": 1528306050
  },
  {
    "city": "bilthoven",
    "lat": 52.1283,
    "lng": 5.1986,
    "region": "utrecht",
    "id": 1528062799
  },
  {
    "city": "geertruidenberg",
    "lat": 51.7,
    "lng": 4.8586,
    "region": "noord-brabant",
    "id": 1528001604
  },
  {
    "city": "hoogezand",
    "lat": 53.1572,
    "lng": 6.7533,
    "region": "groningen",
    "id": 1528523949
  },
  {
    "city": "woensdrecht",
    "lat": 51.4167,
    "lng": 4.3333,
    "region": "noord-brabant",
    "id": 1528569809
  },
  {
    "city": "zundert",
    "lat": 51.4667,
    "lng": 4.6667,
    "region": "noord-brabant",
    "id": 1528815556
  },
  {
    "city": "nuenen",
    "lat": 51.4733,
    "lng": 5.5467,
    "region": "noord-brabant",
    "id": 1528177816
  },
  {
    "city": "leerdam",
    "lat": 51.9,
    "lng": 5.1,
    "region": "zuid-holland",
    "id": 1528119382
  },
  {
    "city": "tubbergen",
    "lat": 52.4,
    "lng": 6.7833,
    "region": "overijssel",
    "id": 1528263465
  },
  {
    "city": "urk",
    "lat": 52.6667,
    "lng": 5.6,
    "region": "flevoland",
    "id": 1528778897
  },
  {
    "city": "cranendonck",
    "lat": 51.2853,
    "lng": 5.5881,
    "region": "noord-brabant",
    "id": 1528448818
  },
  {
    "city": "brummen",
    "lat": 52.0833,
    "lng": 6.15,
    "region": "gelderland",
    "id": 1528439273
  },
  {
    "city": "bladel",
    "lat": 51.3667,
    "lng": 5.2167,
    "region": "noord-brabant",
    "id": 1528208371
  },
  {
    "city": "nootdorp",
    "lat": 52.0333,
    "lng": 4.4,
    "region": "zuid-holland",
    "id": 1528544415
  },
  {
    "city": "rhenen",
    "lat": 51.9667,
    "lng": 5.5667,
    "region": "utrecht",
    "id": 1528573204
  },
  {
    "city": "vianen",
    "lat": 51.9833,
    "lng": 5.1,
    "region": "utrecht",
    "id": 1528383911
  },
  {
    "city": "haren",
    "lat": 53.1667,
    "lng": 6.6,
    "region": "groningen",
    "id": 1528092333
  },
  {
    "city": "edam",
    "lat": 52.5167,
    "lng": 5.05,
    "region": "noord-holland",
    "id": 1528614478
  },
  {
    "city": "weesp",
    "lat": 52.3,
    "lng": 5.05,
    "region": "noord-holland",
    "id": 1528983358
  },
  {
    "city": "naaldwijk",
    "lat": 51.9931,
    "lng": 4.205,
    "region": "zuid-holland",
    "id": 1528653084
  },
  {
    "city": "leek",
    "lat": 53.1667,
    "lng": 6.3833,
    "region": "groningen",
    "id": 1528583392
  },
  {
    "city": "enkhuizen",
    "lat": 52.7,
    "lng": 5.3,
    "region": "noord-holland",
    "id": 1528919863
  },
  {
    "city": "someren",
    "lat": 51.3833,
    "lng": 5.7167,
    "region": "noord-brabant",
    "id": 1528912207
  },
  {
    "city": "eersel",
    "lat": 51.35,
    "lng": 5.3167,
    "region": "noord-brabant",
    "id": 1528475270
  },
  {
    "city": "meerssen",
    "lat": 50.8858,
    "lng": 5.7519,
    "region": "limburg",
    "id": 1528383946
  },
  {
    "city": "echt",
    "lat": 51.1,
    "lng": 5.8833,
    "region": "limburg",
    "id": 1528492944
  },
  {
    "city": "druten",
    "lat": 51.8833,
    "lng": 5.6,
    "region": "gelderland",
    "id": 1528263321
  },
  {
    "city": "hardinxveld-giessendam",
    "lat": 51.8167,
    "lng": 4.8333,
    "region": "zuid-holland",
    "id": 1528515465
  },
  {
    "city": "groesbeek",
    "lat": 51.7833,
    "lng": 5.9333,
    "region": "gelderland",
    "id": 1528617785
  },
  {
    "city": "zuidhorn",
    "lat": 53.25,
    "lng": 6.4,
    "region": "groningen",
    "id": 1528073440
  },
  {
    "city": "oirschot",
    "lat": 51.5,
    "lng": 5.3,
    "region": "noord-brabant",
    "id": 1528394543
  },
  {
    "city": "heerde",
    "lat": 52.3833,
    "lng": 6.05,
    "region": "gelderland",
    "id": 1528444731
  },
  {
    "city": "bergeijk",
    "lat": 51.3167,
    "lng": 5.35,
    "region": "noord-brabant",
    "id": 1528769857
  },
  {
    "city": "middelharnis",
    "lat": 51.75,
    "lng": 4.17,
    "region": "zuid-holland",
    "id": 1528464383
  },
  {
    "city": "bodegraven",
    "lat": 52.0822,
    "lng": 4.7504,
    "region": "zuid-holland",
    "id": 1528875196
  },
  {
    "city": "ommen",
    "lat": 52.5167,
    "lng": 6.4167,
    "region": "overijssel",
    "id": 1528222836
  },
  {
    "city": "waalre",
    "lat": 51.4,
    "lng": 5.4667,
    "region": "noord-brabant",
    "id": 1528079244
  },
  {
    "city": "naarden",
    "lat": 52.2953,
    "lng": 5.1622,
    "region": "noord-holland",
    "id": 1528281177
  },
  {
    "city": "son en breugel",
    "lat": 51.5167,
    "lng": 5.5,
    "region": "noord-brabant",
    "id": 1528367676
  },
  {
    "city": "sint-oedenrode",
    "lat": 51.5636,
    "lng": 5.4608,
    "region": "noord-brabant",
    "id": 1528117476
  },
  {
    "city": "brielle",
    "lat": 51.9,
    "lng": 4.1667,
    "region": "zuid-holland",
    "id": 1528923467
  },
  {
    "city": "schaesberg",
    "lat": 50.9,
    "lng": 6.0167,
    "region": "limburg",
    "id": 1528425439
  },
  {
    "city": "rijen",
    "lat": 51.5833,
    "lng": 4.95,
    "region": "noord-brabant",
    "id": 1528875142
  },
  {
    "city": "schijndel",
    "lat": 51.6167,
    "lng": 5.4333,
    "region": "noord-brabant",
    "id": 1528263982
  },
  {
    "city": "zandvoort",
    "lat": 52.3667,
    "lng": 4.5333,
    "region": "noord-holland",
    "id": 1528150245
  },
  {
    "city": "gennep",
    "lat": 51.7,
    "lng": 5.9667,
    "region": "limburg",
    "id": 1528960180
  },
  {
    "city": "staphorst",
    "lat": 52.65,
    "lng": 6.2167,
    "region": "overijssel",
    "id": 1528939311
  },
  {
    "city": "nederweert",
    "lat": 51.2833,
    "lng": 5.75,
    "region": "limburg",
    "id": 1528349130
  },
  {
    "city": "noordwijkerhout",
    "lat": 52.2667,
    "lng": 4.5,
    "region": "zuid-holland",
    "id": 1528406512
  },
  {
    "city": "kaatsheuvel",
    "lat": 51.6667,
    "lng": 5.0667,
    "region": "noord-brabant",
    "id": 1528956627
  },
  {
    "city": "asten",
    "lat": 51.4,
    "lng": 5.75,
    "region": "noord-brabant",
    "id": 1528132809
  },
  {
    "city": "heumen",
    "lat": 51.7833,
    "lng": 5.85,
    "region": "gelderland",
    "id": 1528375615
  },
  {
    "city": "westervoort",
    "lat": 51.9667,
    "lng": 5.9667,
    "region": "gelderland",
    "id": 1528918651
  },
  {
    "city": "beek",
    "lat": 50.9333,
    "lng": 5.8,
    "region": "limburg",
    "id": 1528590819
  },
  {
    "city": "harenkarspel",
    "lat": 52.7344,
    "lng": 4.7706,
    "region": "noord-holland",
    "id": 1528667512
  },
  {
    "city": "harlingen",
    "lat": 53.1736,
    "lng": 5.4272,
    "region": "fryslân",
    "id": 1528687785
  },
  {
    "city": "sassenheim",
    "lat": 52.2258,
    "lng": 4.5225,
    "region": "zuid-holland",
    "id": 1528941330
  },
  {
    "city": "vlagtwedde",
    "lat": 52.95,
    "lng": 7.15,
    "region": "groningen",
    "id": 1528022418
  },
  {
    "city": "nuth",
    "lat": 50.9167,
    "lng": 5.8833,
    "region": "limburg",
    "id": 1528559023
  },
  {
    "city": "hilvarenbeek",
    "lat": 51.4833,
    "lng": 5.1333,
    "region": "noord-brabant",
    "id": 1528436938
  },
  {
    "city": "bunnik",
    "lat": 52.05,
    "lng": 5.2333,
    "region": "utrecht",
    "id": 1528719790
  },
  {
    "city": "julianadorp",
    "lat": 52.8833,
    "lng": 4.7333,
    "region": "noord-holland",
    "id": 1528722946
  },
  {
    "city": "breukelen",
    "lat": 52.1717,
    "lng": 5.0017,
    "region": "utrecht",
    "id": 1528284816
  },
  {
    "city": "woudrichem",
    "lat": 51.8167,
    "lng": 5,
    "region": "noord-brabant",
    "id": 1528290983
  },
  {
    "city": "slochteren",
    "lat": 53.2167,
    "lng": 6.8,
    "region": "groningen",
    "id": 1528066163
  },
  {
    "city": "badhoevedorp",
    "lat": 52.3333,
    "lng": 4.7833,
    "region": "noord-holland",
    "id": 1528100185
  },
  {
    "city": "lopik",
    "lat": 51.9667,
    "lng": 4.95,
    "region": "utrecht",
    "id": 1528959358
  },
  {
    "city": "haaren",
    "lat": 51.6,
    "lng": 5.2333,
    "region": "noord-brabant",
    "id": 1528557214
  },
  {
    "city": "rozenburg",
    "lat": 51.9058,
    "lng": 4.2486,
    "region": "zuid-holland",
    "id": 1528996034
  },
  {
    "city": "montfoort",
    "lat": 52.05,
    "lng": 4.95,
    "region": "utrecht",
    "id": 1528818658
  },
  {
    "city": "uitgeest",
    "lat": 52.5333,
    "lng": 4.7167,
    "region": "noord-holland",
    "id": 1528048993
  },
  {
    "city": "beilen",
    "lat": 52.8567,
    "lng": 6.5111,
    "region": "drenthe",
    "id": 1528196835
  },
  {
    "city": "wezep",
    "lat": 52.4625,
    "lng": 5.9983,
    "region": "gelderland",
    "id": 1528612724
  },
  {
    "city": "woudenberg",
    "lat": 52.0833,
    "lng": 5.4167,
    "region": "utrecht",
    "id": 1528766382
  },
  {
    "city": "beesel",
    "lat": 51.2833,
    "lng": 6.0333,
    "region": "limburg",
    "id": 1528749686
  },
  {
    "city": "margraten",
    "lat": 50.8167,
    "lng": 5.8167,
    "region": "limburg",
    "id": 1528721027
  },
  {
    "city": "schoonhoven",
    "lat": 51.95,
    "lng": 4.85,
    "region": "zuid-holland",
    "id": 1528834731
  },
  {
    "city": "raamsdonksveer",
    "lat": 51.6833,
    "lng": 4.8667,
    "region": "noord-brabant",
    "id": 1528845706
  },
  {
    "city": "winsum",
    "lat": 53.3312,
    "lng": 6.5157,
    "region": "groningen",
    "id": 1528389180
  },
  {
    "city": "schinnen",
    "lat": 50.95,
    "lng": 5.8833,
    "region": "limburg",
    "id": 1528127651
  },
  {
    "city": "reeuwijk",
    "lat": 52.05,
    "lng": 4.73,
    "region": "zuid-holland",
    "id": 1528903557
  },
  {
    "city": "oudenbosch",
    "lat": 51.5892,
    "lng": 4.5239,
    "region": "noord-brabant",
    "id": 1528311277
  },
  {
    "city": "bergen",
    "lat": 51.6,
    "lng": 6.05,
    "region": "limburg",
    "id": 1528008506
  },
  {
    "city": "joure",
    "lat": 52.9667,
    "lng": 5.7833,
    "region": "fryslân",
    "id": 1528021505
  },
  {
    "city": "dedemsvaart",
    "lat": 52.6,
    "lng": 6.4667,
    "region": "overijssel",
    "id": 1528168277
  },
  {
    "city": "wolvega",
    "lat": 52.8761,
    "lng": 6.0014,
    "region": "fryslân",
    "id": 1528105224
  },
  {
    "city": "kapelle",
    "lat": 51.4833,
    "lng": 3.95,
    "region": "zeeland",
    "id": 1528835251
  },
  {
    "city": "franeker",
    "lat": 53.2,
    "lng": 5.5333,
    "region": "fryslân",
    "id": 1528890881
  },
  {
    "city": "grave",
    "lat": 51.7667,
    "lng": 5.7333,
    "region": "noord-brabant",
    "id": 1528377507
  },
  {
    "city": "voerendaal",
    "lat": 50.8833,
    "lng": 5.9333,
    "region": "limburg",
    "id": 1528448333
  },
  {
    "city": "hattem",
    "lat": 52.4667,
    "lng": 6.0667,
    "region": "gelderland",
    "id": 1528928512
  },
  {
    "city": "blaricum",
    "lat": 52.2667,
    "lng": 5.25,
    "region": "noord-holland",
    "id": 1528676942
  },
  {
    "city": "made",
    "lat": 51.6764,
    "lng": 4.7925,
    "region": "noord-brabant",
    "id": 1528216720
  },
  {
    "city": "wieringerwerf",
    "lat": 52.8506,
    "lng": 5.0228,
    "region": "noord-holland",
    "id": 1528023742
  },
  {
    "city": "neerijnen",
    "lat": 51.8333,
    "lng": 5.2833,
    "region": "gelderland",
    "id": 1528553514
  },
  {
    "city": "dokkum",
    "lat": 53.3269,
    "lng": 5.9981,
    "region": "fryslân",
    "id": 1528667221
  },
  {
    "city": "klazienaveen",
    "lat": 52.7333,
    "lng": 6.9833,
    "region": "drenthe",
    "id": 1528158421
  },
  {
    "city": "laren",
    "lat": 52.25,
    "lng": 5.2333,
    "region": "noord-holland",
    "id": 1528663323
  },
  {
    "city": "opmeer",
    "lat": 52.7,
    "lng": 4.95,
    "region": "noord-holland",
    "id": 1528203393
  },
  {
    "city": "grootegast",
    "lat": 53.2167,
    "lng": 6.2833,
    "region": "groningen",
    "id": 1528352436
  },
  {
    "city": "appingedam",
    "lat": 53.3167,
    "lng": 6.8667,
    "region": "groningen",
    "id": 1528708475
  },
  {
    "city": "landsmeer",
    "lat": 52.4333,
    "lng": 4.9167,
    "region": "noord-holland",
    "id": 1528416718
  },
  {
    "city": "doesburg",
    "lat": 52.0167,
    "lng": 6.1333,
    "region": "gelderland",
    "id": 1528413725
  },
  {
    "city": "eijsden",
    "lat": 50.7778,
    "lng": 5.7083,
    "region": "limburg",
    "id": 1528761006
  },
  {
    "city": "sint anthonis",
    "lat": 51.6258,
    "lng": 5.8811,
    "region": "noord-brabant",
    "id": 1528221229
  },
  {
    "city": "leidschendam",
    "lat": 52.0833,
    "lng": 4.4,
    "region": "zuid-holland",
    "id": 1528331726
  },
  {
    "city": "mierlo",
    "lat": 51.4411,
    "lng": 5.6194,
    "region": "noord-brabant",
    "id": 1528873347
  },
  {
    "city": "heerlerbaan",
    "lat": 50.8692,
    "lng": 6.0103,
    "region": "limburg",
    "id": 1528640584
  },
  {
    "city": "zierikzee",
    "lat": 51.6497,
    "lng": 3.9164,
    "region": "zeeland",
    "id": 1528091477
  },
  {
    "city": "lieshout",
    "lat": 51.5194,
    "lng": 5.5939,
    "region": "noord-brabant",
    "id": 1528167902
  },
  {
    "city": "boekel",
    "lat": 51.6,
    "lng": 5.6667,
    "region": "noord-brabant",
    "id": 1528471312
  },
  {
    "city": "simpelveld",
    "lat": 50.8333,
    "lng": 5.9833,
    "region": "limburg",
    "id": 1528926079
  },
  {
    "city": "hoek van holland",
    "lat": 51.9811,
    "lng": 4.1286,
    "region": "zuid-holland",
    "id": 1528209321
  },
  {
    "city": "scherpenzeel",
    "lat": 52.0833,
    "lng": 5.4667,
    "region": "gelderland",
    "id": 1528061473
  },
  {
    "city": "bedum",
    "lat": 53.3,
    "lng": 6.6,
    "region": "groningen",
    "id": 1528797716
  },
  {
    "city": "marum",
    "lat": 53.15,
    "lng": 6.2667,
    "region": "groningen",
    "id": 1528447211
  },
  {
    "city": "monnickendam",
    "lat": 52.4667,
    "lng": 5.0333,
    "region": "noord-holland",
    "id": 1528187463
  },
  {
    "city": "doorn",
    "lat": 52.0333,
    "lng": 5.35,
    "region": "utrecht",
    "id": 1528210177
  },
  {
    "city": "borger",
    "lat": 52.9236,
    "lng": 6.7922,
    "region": "drenthe",
    "id": 1528847849
  },
  {
    "city": "vaals",
    "lat": 50.7667,
    "lng": 6.0167,
    "region": "limburg",
    "id": 1528584480
  },
  {
    "city": "roelofarendsveen",
    "lat": 52.2,
    "lng": 4.6333,
    "region": "zuid-holland",
    "id": 1528595898
  },
  {
    "city": "oudewater",
    "lat": 52.0167,
    "lng": 4.8667,
    "region": "utrecht",
    "id": 1528852092
  },
  {
    "city": "eerbeek",
    "lat": 52.1053,
    "lng": 6.0633,
    "region": "gelderland",
    "id": 1528788806
  },
  {
    "city": "lemmer",
    "lat": 52.8437,
    "lng": 5.7093,
    "region": "fryslân",
    "id": 1528838845
  },
  {
    "city": "kudelstaart",
    "lat": 52.2339,
    "lng": 4.7483,
    "region": "noord-holland",
    "id": 1528545833
  },
  {
    "city": "oostzaan",
    "lat": 52.4333,
    "lng": 4.8833,
    "region": "noord-holland",
    "id": 1528095690
  },
  {
    "city": "ulft",
    "lat": 51.8908,
    "lng": 6.3797,
    "region": "gelderland",
    "id": 1528529682
  },
  {
    "city": "zuidlaren",
    "lat": 53.0942,
    "lng": 6.6844,
    "region": "drenthe",
    "id": 1528131698
  },
  {
    "city": "nieuw-lekkerland",
    "lat": 51.8833,
    "lng": 4.6833,
    "region": "zuid-holland",
    "id": 1528878794
  },
  {
    "city": "burgum",
    "lat": 53.2,
    "lng": 6,
    "region": "fryslân",
    "id": 1528529057
  },
  {
    "city": "heeze",
    "lat": 51.3825,
    "lng": 5.5683,
    "region": "noord-brabant",
    "id": 1528009442
  },
  {
    "city": "bergambacht",
    "lat": 51.9333,
    "lng": 4.7833,
    "region": "zuid-holland",
    "id": 1528580595
  },
  {
    "city": "vlist",
    "lat": 51.9667,
    "lng": 4.7667,
    "region": "zuid-holland",
    "id": 1528665852
  },
  {
    "city": "liesveld",
    "lat": 51.9156,
    "lng": 4.8456,
    "region": "zuid-holland",
    "id": 1528417932
  },
  {
    "city": "genemuiden",
    "lat": 52.6244,
    "lng": 6.0397,
    "region": "overijssel",
    "id": 1528251889
  },
  {
    "city": "oosterwolde",
    "lat": 52.9903,
    "lng": 6.2914,
    "region": "fryslân",
    "id": 1528950290
  },
  {
    "city": "sint willebrord",
    "lat": 51.5503,
    "lng": 4.5917,
    "region": "noord-brabant",
    "id": 1528360139
  },
  {
    "city": "eemnes",
    "lat": 52.25,
    "lng": 5.25,
    "region": "utrecht",
    "id": 1528049688
  },
  {
    "city": "ubbergen",
    "lat": 51.8333,
    "lng": 5.9167,
    "region": "gelderland",
    "id": 1528910216
  },
  {
    "city": "nieuwleusen",
    "lat": 52.5833,
    "lng": 6.2833,
    "region": "overijssel",
    "id": 1528131301
  },
  {
    "city": "s-gravendeel",
    "lat": 51.7833,
    "lng": 4.6167,
    "region": "zuid-holland",
    "id": 1528706910
  },
  {
    "city": "zoeterwoude",
    "lat": 52.1333,
    "lng": 4.5,
    "region": "zuid-holland",
    "id": 1528774166
  },
  {
    "city": "abcoude",
    "lat": 52.27,
    "lng": 4.97,
    "region": "utrecht",
    "id": 1528930356
  },
  {
    "city": "wervershoof",
    "lat": 52.73,
    "lng": 5.17,
    "region": "noord-holland",
    "id": 1528048867
  },
  {
    "city": "s-heerenberg",
    "lat": 51.8764,
    "lng": 6.2458,
    "region": "gelderland",
    "id": 1528329380
  },
  {
    "city": "strijen",
    "lat": 51.75,
    "lng": 4.55,
    "region": "zuid-holland",
    "id": 1528436754
  },
  {
    "city": "loenen",
    "lat": 52.2419,
    "lng": 5.0275,
    "region": "utrecht",
    "id": 1528450020
  },
  {
    "city": "ter apel",
    "lat": 52.8756,
    "lng": 7.0597,
    "region": "groningen",
    "id": 1528468512
  },
  {
    "city": "bolsward",
    "lat": 53.0667,
    "lng": 5.5333,
    "region": "fryslân",
    "id": 1528220988
  }
]
